Site    ,Name                                     ,Lat       ,Lon      ,Start    ,End      , Years ,  %  ,AWS
67114,ABBOTSBURY (FAIRFIELD (CITY FARM))       ,-33.8667,150.8611,1/12/2000,1/3/2022,20.9,98,  N
66034,ABBOTSFORD (BLACKWALL POINT RD)          ,-33.8507,151.1295,1/1/2004,1/3/2022,18.3,100,  N
55230,ABBOTSLEA                                ,-31.0667,150.05,NA,1/10/1926,36.4,97,  N
63000,ABERCROMBIE (ABERCROMBIE BRIDGE)         ,-33.9541,149.3252,1/7/1931,1/9/2007,74.9,98,  N
63296,ABERCROMBIE (ABERCROMBIE RIVER)          ,-33.9547,149.3241,1/12/2000,1/12/2014,13.7,97,  N
63257,ABERCROMBIE (THE JUNCTION)               ,-33.9609,149.3184,1/11/2007,1/8/2016,8.7,98,  N
63199,ABERCROMBIE CAVES                        ,-33.9833,149.4167,1/1/1900,1/3/1927,27.2,100,  N
61000,ABERDEEN (MAIN RD)                       ,-32.1655,150.8911,NA,1/5/2013,113.1,95,  N
61065,ABERDEEN (ROSSGOLE)                      ,-32.1402,150.7285,1/1/1926,1/12/2021,95.9,100,  N
57000,ABERFOYLE                                ,-30.2667,152.0167,NA,1/12/1970,77.3,91,  N
57101,ABERFOYLE (BAMBI)                        ,-30.2667,152.0333,1/1/1971,1/5/1973,2.4,100,  N
56183,ABINGTON (GLANMIRE)                      ,-30.3167,151.2,1/1/1960,1/10/1974,13.7,92,  N
57031,ACACIA PLATEAU (BELMONT)                 ,-28.35,152.4333,1/6/1954,1/4/1970,15.9,100,  N
71040,ADAMINABY (YAOUK)                        ,-35.7858,148.8106,1/12/1969,1/12/2021,38,73,  N
71000,ADAMINABY ALPINE TOURIST PARK            ,-35.9962,148.7693,NA,1/3/2022,133.5,99,  N
50087,ADAVALE                                  ,-32.9,148,NA,1/1/1942,47.1,98,  N
72083,ADELONG (GALIMBANG)                      ,-35.4402,147.928,1/5/1967,1/10/2013,46.5,100,  N
72159,ADELONG (KATHVALE)                       ,-35.3205,147.9419,1/6/1985,1/2/2022,34.8,94,  N
72000,ADELONG (TUMUT ST)                       ,-35.3085,148.0641,NA,1/11/2020,136.3,99,  N
73147,ADJUNGBILLY (RED HILL RD)                ,-35.0875,148.3967,1/7/2003,1/7/2004,1.1,100,  N
58066,AFTERLEE POST OFFICE                     ,-28.5833,152.8333,1/11/1953,1/8/1964,10.8,100,  N
70000,AINSLIE TYSON ST                         ,-35.2583,149.1424,1/4/1935,1/1/2021,85.7,100,  N
67039,AJANA                                    ,-33.65,150.7667,1/1/1963,1/12/1964,2,100,  N
50001,ALAWA                                    ,-33.4,147.6,1/2/1925,1/3/1937,10.3,85,  N
50033,ALBERT (THE MEADOWS)                     ,-32.3333,147.4,1/7/1906,1/10/1977,71.3,100,  N
68129,ALBION PARK (PARKVALE)                   ,-34.6,150.75,1/11/1962,1/7/1967,4.3,91,  N
68241,ALBION PARK (SHELLHARBOUR AIRPORT)       ,-34.5639,150.7924,1/6/1999,1/3/2022,22.8,100,  Y
68000,ALBION PARK POST OFFICE                  ,-34.5712,150.7761,NA,1/2/2022,126.8,98,  N
72001,ALBURY                                   ,-36.1,146.9,NA,1/7/1962,99.3,95,  N
72168,ALBURY (TABLE TOP (NYRIMBLA))            ,-35.9757,147.0371,1/1/2004,1/11/2012,8.9,100,  N
72146,ALBURY AIRPORT                           ,-36.0694,146.9531,1/6/1983,1/2/2022,38.5,99,  N
72160,ALBURY AIRPORT AWS                       ,-36.069,146.9509,1/6/1994,1/3/2022,27.8,100,  Y
72059,ALBURY GRAMMAR SCHOOL                    ,-36.0667,146.9333,1/11/1960,1/11/1969,8.5,94,  N
72057,ALBURY PMG REPEATER STATION              ,-36.1,146.9,1/9/1954,1/7/1962,7.9,100,  N
72097,ALBURY PUMPING STATION                   ,-36.0817,146.955,1/5/1970,1/8/1986,16.3,100,  N
50117,ALECTOWN (BRIDGEWATER)                   ,-32.8952,148.2811,1/9/1970,1/3/2022,51.4,100,  N
65100,ALECTOWN (CAWDOR)                        ,-32.9874,148.2288,1/6/1992,1/5/2020,28,100,  N
50121,ALECTOWN (GLENROY)                       ,-32.9433,148.2833,1/1/1973,1/5/1992,19.4,100,  N
50115,ALECTOWN (GOONAHRA)                      ,-32.857,148.2577,1/7/1970,1/4/2013,42.8,100,  N
50116,ALECTOWN (KADINA PARK)                   ,-32.9294,148.3017,1/7/1970,1/9/1997,27.3,100,  N
50119,ALECTOWN (VANVILLA)                      ,-32.9368,148.2447,1/9/1949,1/3/2022,64.8,89,  N
66021,ALEXANDRIA (ERSKINEVILLE)                ,-33.9167,151.2,1/5/1904,1/11/1973,69.3,100,  N
66033,ALEXANDRIA (HENDERSON ROAD)              ,-33.8992,151.1933,1/5/1962,1/6/1999,2.3,6,  N
57098,ALICE (CLEVELAND)                        ,-29.0167,152.5667,1/1/1974,1/4/2000,4,15,  N
57097,ALICE (TILBAROO)                         ,-29.0333,152.5833,1/9/1971,1/12/1973,2.3,100,  N
70140,ALLAMBIE                                 ,-34.6833,149.7833,1/7/1959,1/10/1966,7.2,98,  N
61001,ALLANDALE (TINGARA)                      ,-32.7167,151.4167,1/7/1902,1/5/1971,49.1,71,  N
49069,ALMA (BOOLIGAL)                          ,-33.4,144.4,NA,1/8/1939,31.4,72,  N
49068,ALMA 2                                   ,-33.4167,144.3667,NA,1/12/1917,18.8,99,  N
74263,ALMA PARK (ALBARINGA)                    ,-35.6259,146.8343,1/1/1997,1/12/2021,24.8,99,  N
68128,ALPINE                                   ,-34.4,150.5167,1/11/1962,1/12/1970,7.7,94,  N
58000,ALSTONVILLE POST OFFICE                  ,-28.85,153.45,1/11/1903,1/7/1973,69.8,100,  N
58131,ALSTONVILLE TROPICAL FRUIT RESEARCH STAT ,-28.8521,153.4556,1/3/1963,1/7/2011,48,99,  N
68227,AMBARVALE CLENNAM AVE                    ,-34.0867,150.7917,1/10/1988,1/12/1991,3.3,100,  N
48066,AMPHITHEATRE                             ,-31.5333,145.6,NA,1/12/1920,30.3,82,  N
48168,ANGLEDOOL (ANGLEDOOL STATION)            ,-29.1173,147.8993,NA,1/3/2022,136.3,100,  N
63131,ANGUS PLACE (WOLGAN GAP)                 ,-33.3167,150.1167,1/8/1959,1/11/1982,23.2,99,  N
46118,ANNALARA                                 ,-31.2667,144.0333,1/9/1923,1/6/1966,42.8,100,  N
68134,APPIN (STANHOPE)                         ,-34.2,150.7833,NA,1/12/1913,25.1,100,  N
68234,APPIN (WILTON ROAD)                      ,-34.2206,150.7685,1/8/2009,1/10/2010,0.9,73,  N
47001,APPIN 3                                  ,-32.4167,142.3833,1/6/1925,1/1/1961,26.5,74,  N
68001,APPIN CHURCH ST                          ,-34.2069,150.7931,1/1/1907,1/6/1997,74.2,82,  N
74137,ARAJOL                                   ,-35.1167,147.0167,1/1/1904,1/12/1926,20.7,90,  N
69105,ARALUEN (MERRICUMBENE)                   ,-35.7333,149.8667,1/9/1970,1/6/1979,8.8,100,  N
54071,ARALUEN (OAKWOOD)                        ,-29.6167,151.0833,1/9/1958,1/9/1994,12.6,35,  N
69127,ARALUEN LOWER (ARALUEN RD)               ,-35.6867,149.8382,1/6/1980,1/3/2022,41.1,98,  N
69000,ARALUEN POST OFFICE                      ,-35.65,149.8167,NA,1/4/1970,78.7,100,  N
70242,ARANDA (BINDAGA ST)                      ,-35.2572,149.0742,1/7/1971,1/3/2022,50.8,100,  N
56000,ARDING                                   ,-30.6,151.55,1/7/1922,1/9/1954,31.8,99,  N
56200,ARDING (BOOYONG)                         ,-30.5833,151.55,1/2/1970,1/4/1974,4.2,98,  N
74266,ARDLETHAN (MAXWELTON)                    ,-34.2336,146.8453,1/7/2003,1/5/2016,12.9,100,  N
74268,ARDLETHAN (STRATHBOGIE)                  ,-34.1932,146.9278,1/1/1970,1/1/2022,52,100,  N
74000,ARDLETHAN POST OFFICE                    ,-34.357,146.9035,1/7/1909,1/3/2022,106.9,95,  N
72164,ARGALONG (CANYA)                         ,-35.3214,148.4642,1/7/1997,1/5/1998,0.9,100,  N
72152,ARGALONG (SANDY CREEK)                   ,-35.317,148.433,1/12/2000,1/3/2022,17.9,84,  N
72003,ARGALONG (THE FARM)                      ,-35.3083,148.4117,1/8/1900,1/7/1996,92.8,97,  N
74001,ARGOON                                   ,-34.9,145.9,NA,1/9/1958,67.8,100,  N
74231,ARIAH PARK (TRICKETTDALE)                ,-34.5333,147.3,1/11/1968,1/4/1975,6.4,99,  N
74239,ARIAH PARK (YARRANJERRY)                 ,-34.4667,147.05,NA,1/7/1903,7,95,  N
74002,ARIAH PARK POST OFFICE                   ,-34.3479,147.2208,1/5/1903,1/2/2022,118,99,  N
63149,ARLAMONT                                 ,-33.7,149.9333,1/8/1959,1/11/1969,10.3,100,  N
56219,ARMIDALE (AMAROO RD)                     ,-30.5154,151.5324,1/1/2007,1/9/2009,2.6,94,  N
56068,ARMIDALE (BELHAVEN)                      ,-30.3793,151.7521,1/2/1961,1/11/2003,40.8,95,  N
57007,ARMIDALE (FORGLEN)                       ,-30.45,151.9167,1/1/1937,1/12/1975,38.7,99,  N
57048,ARMIDALE (GARA)                          ,-30.5833,151.8167,1/5/1961,1/10/1974,13,96,  N
57092,ARMIDALE (GIRRAKOOL)                     ,-30.3667,151.9667,1/1/1965,1/8/1974,9.7,100,  N
57034,ARMIDALE (GOOYONG)                       ,-30.45,151.8167,1/2/1961,1/2/1984,23,100,  N
57088,ARMIDALE (HERBERT PARK)                  ,-30.4167,151.8167,1/1/1930,1/12/1935,6,100,  N
57106,ARMIDALE (LOCH ABBA)                     ,-30.39,151.815,1/5/1976,1/12/2010,28.8,83,  N
56002,ARMIDALE (RADIO STATION 2AD)             ,-30.5167,151.6681,NA,1/6/1997,134.5,96,  N
56191,ARMIDALE (TILBUSTER)                     ,-30.45,151.6833,1/2/1966,1/11/1974,7.7,87,  N
56069,ARMIDALE (TIVERTON)                      ,-30.6479,151.7463,1/2/1961,1/7/2009,39.3,81,  N
56037,ARMIDALE (TREE GROUP NURSERY)            ,-30.5243,151.6716,1/6/1997,1/3/2022,24.8,100,  N
56070,ARMIDALE (WYNDELLA)                      ,-30.4167,151.5667,1/5/1961,1/6/1969,7.1,87,  N
56238,ARMIDALE AIRPORT AWS                     ,-30.5273,151.6158,1/6/1994,1/3/2022,27.3,98,  Y
56003,ARMIDALE FOREST                          ,-30.5,151.6,1/1/1929,1/1/1954,25.1,100,  N
67049,ARNOLD GROVE                             ,-33.4,151.2,NA,1/12/1918,30,100,  N
59132,ARRAWARRA CARAVAN PARK                   ,-30.0611,153.1944,1/9/1986,1/3/1992,5.3,94,  N
54001,ARRAWATTA (INVERELL)                     ,-29.7,151.1,1/3/1907,1/1/1951,36.2,82,  N
53061,ARRORAMIE LOWER                          ,-30.75,149.6,NA,1/6/1914,24.8,100,  N
65000,ARTHURVILLE (CRAMOND)                    ,-32.4975,148.7488,NA,1/2/2022,133.3,100,  N
47002,ARUMPO                                   ,-33.75,142.9,NA,1/6/1966,84.6,98,  N
74138,ARUNDEL                                  ,-35.9,146.6,NA,1/12/1936,48,100,  N
66000,ASHFIELD BOWLING CLUB                    ,-33.885,151.1344,NA,1/3/2012,106.6,90,  N
54054,ASHFORD (ALMOND BANK)                    ,-29.45,151.2333,1/9/1958,1/12/1964,6.3,100,  N
54043,ASHFORD (BEAUMONT)                       ,-29.357,151.1432,1/1/1946,1/12/2021,74,97,  N
54046,ASHFORD (BURRABOGIE)                     ,-29.3992,151.4107,1/1/1959,1/2/2022,63.1,100,  N
54053,ASHFORD (COOLENDOON)                     ,-29.45,151.1667,1/9/1958,1/6/1979,20.8,100,  N
54051,ASHFORD (EGREMONT)                       ,-29.4167,151.15,1/1/1959,1/3/1977,18.1,99,  N
54041,ASHFORD (NORWOOD)                        ,-29.25,151.05,1/1/1959,1/10/1979,20.8,100,  N
54055,ASHFORD (SABRINA)                        ,-29.4017,151.2033,1/8/1958,1/12/1987,29.4,100,  N
54045,ASHFORD (SPRINGVALE)                     ,-29.3411,151.2894,1/9/1958,1/12/2020,60.4,97,  N
54002,ASHFORD (SUNHAVEN HOSTEL)                ,-29.3196,151.0916,1/3/1901,1/12/2007,101.2,95,  N
54044,ASHFORD (TARRANGOWER)                    ,-29.2975,151.1478,1/1/1959,1/12/2008,49,98,  N
54047,ASHFORD (TREVANNA)                       ,-29.9,151.0833,1/9/1958,1/7/1993,17.7,51,  N
53020,ASHLEY (MIDKIN)                          ,-29.3,149.7667,1/8/1906,1/6/1978,71.9,100,  N
53040,ASHLEY (THE PRAIRIES)                    ,-29.048,149.9384,1/1/1928,1/9/2011,83.6,100,  N
63258,ATHOL 1                                  ,-33.5,149.3,NA,1/11/1939,59.9,99,  N
55000,ATTUNGA (GARTHOWEN)                      ,-30.9113,150.8579,1/1/1903,1/2/2022,116,97,  N
55121,ATTUNGA (KERRIBREE)                      ,-30.8833,150.8167,1/10/1958,1/8/1978,19.8,100,  N
55122,ATTUNGA (MINDEROO)                       ,-30.8415,150.9097,1/8/1958,1/2/2022,60.8,96,  N
55105,ATTUNGA (TARANA)                         ,-30.7966,150.8643,1/10/1958,1/2/2022,60.3,95,  N
55120,ATTUNGA (THE PINES)                      ,-30.9309,150.7873,1/8/1958,1/2/2022,63.2,99,  N
55001,ATTUNGA (WARRAWILLA)                     ,-30.9333,150.8833,1/1/1947,1/11/1973,23.3,86,  N
66176,AUDLEY  (ROYAL NATIONAL PARK)            ,-34.0642,151.0578,1/1/1979,1/3/2022,39,90,  N
66001,AUDLEY NATIONAL PARK BOTTOM ST           ,-34.0667,151.05,NA,1/12/1979,72.4,90,  N
67036,AUSTRAL EIGHTH AVE                       ,-33.9333,150.8167,1/6/1964,1/8/1989,25.1,99,  N
66053,AVALON (WOLLSTONECRAFT AVE)              ,-33.63,151.3291,1/1/2002,1/7/2015,13.2,97,  N
66079,AVALON BEACH (AVALON (PALMGROVE RD))     ,-33.6358,151.3223,1/10/1958,1/11/2021,42.8,68,  N
61003,AVOCA BEACH                              ,-33.4667,151.4333,1/3/1934,1/12/1970,36.8,100,  N
61294,AVOCA BEACH BOWLING CLUB                 ,-33.4666,151.4123,1/5/1970,1/2/2022,51.8,100,  N
68002,AVON DAM MWSDB                           ,-34.35,150.6333,1/1/1919,1/10/1967,48.8,100,  N
55317,BAAN BAA                                 ,-30.6,149.9,NA,1/9/1951,56.5,95,  N
49066,BABINDA TANK                             ,-31.8833,146.35,1/4/1904,1/2/1917,12.9,100,  N
73059,BACK CREEK                               ,-33.85,147.5,1/1/1901,1/12/1916,11.8,73,  N
55199,BACK CREEK (NUNDLE)                      ,-31.5833,151.05,1/2/1959,1/5/1967,6.3,75,  N
65001,BACK YAMMA STATE FOREST                  ,-33.3,148.2,1/6/1938,1/8/1957,19,99,  N
58108,BACKMEDE (GREEN GATES)                   ,-28.7667,153.0333,1/10/1965,1/12/1976,11.3,100,  N
67108,BADGERYS CREEK AWS                       ,-33.8969,150.7281,1/11/1995,1/3/2022,26.3,99,  Y
67068,BADGERYS CREEK MCMASTERS F.STN           ,-33.8683,150.7278,1/1/1936,1/12/1996,59.5,97,  N
67050,BADGERYS CREEK SCHOOL                    ,-33.8833,150.75,1/1/1919,1/5/1929,10.4,100,  N
61423,BAERAMI (THE OLD DAIRY)                  ,-32.377,150.4851,1/7/2010,1/3/2022,11.8,100,  N
61264,BAERAMI CREEK (BOREEWAN)                 ,-32.45,150.45,1/5/1968,1/12/1984,16.7,100,  N
61204,BAERAMI CREEK (BRONWYN PARK)             ,-32.5356,150.4483,1/1/1960,1/6/2021,61.5,100,  N
72028,BAGO (KUNAMA)                            ,-35.5833,148.1,1/1/1940,1/11/1968,28.7,99,  N
72039,BAGO (PILOT HILL)                        ,-35.6167,148.15,1/7/1910,1/9/1951,34.8,84,  N
75090,BAGORMBA                                 ,-34.4,144.9333,NA,1/1/1913,16.3,86,  N
47004,BAKARA                                   ,-31.8833,143.05,1/10/1925,1/8/1974,48.6,99,  N
47092,BALACLAVA                                ,-32.1333,141.3667,1/11/1908,1/9/1926,16.5,92,  N
61134,BALAIBLUAN                               ,-32.1667,150.55,1/11/1961,1/3/1968,4.8,75,  N
65002,BALD HILLS                               ,-33.1167,148.6,1/7/1930,1/12/1959,29.5,100,  N
65042,BALDERODGERY                             ,-33.1,148.4,NA,1/3/1919,23.5,100,  N
50057,BALEVEOLAN                               ,-32.3,147,1/1/1937,1/12/1941,5,100,  N
66002,BALGOWLAH (ETHEL STREET)                 ,-33.7997,151.2508,1/6/1940,1/12/1989,49.3,99,  N
51126,BALLADORAN (GLENBURN)                    ,-31.8833,148.4833,1/5/1968,1/4/1973,4.9,98,  N
69118,BALLALABA (BOURKES HILL)                 ,-35.5563,149.6414,1/5/1968,1/4/2004,31.8,88,  N
74004,BALLDALE POST OFFICE                     ,-35.8462,146.5194,1/6/1908,1/2/2022,110.3,97,  N
58205,BALLINA (BURNET ST)                      ,-28.8681,153.5667,1/7/2011,1/1/2015,3.6,100,  N
58001,BALLINA (CROWLEY VILLAGE)                ,-28.8528,153.5691,NA,1/6/2009,114.1,97,  N
58198,BALLINA AIRPORT AWS                      ,-28.8353,153.5585,1/11/1992,1/3/2022,29.4,100,  Y
58128,BALLINA WEST                             ,-28.9,153.5833,1/10/1908,1/3/1945,34.8,95,  N
75000,BALLINGAL                                ,-34.2,146,1/2/1939,1/9/1951,9,71,  N
68135,BALMORAL                                 ,-34.3,150.55,NA,1/1/1920,25.4,83,  N
49089,BALOURA TANK                             ,-32.35,146.35,NA,1/8/1910,19.7,100,  N
75001,BALPOOL (NYANG)                          ,-35.15,144.2,NA,1/4/1950,52.8,86,  N
49002,BALRANALD (RSL)                          ,-34.6398,143.561,NA,1/3/2022,143.3,100,  N
49048,BALRANALD (TILLARA)                      ,-34.6516,143.0491,1/6/1901,1/12/2010,107.9,98,  N
73060,BANDANGAN                                ,-34.4167,148.1667,1/4/1902,1/5/1917,15.2,100,  N
55231,BANDO RIDGE                              ,-31.2167,149.9667,NA,1/2/1918,23.4,88,  N
68090,BANGADILLY                               ,-34.4833,150.1167,1/8/1959,1/3/1966,6.6,99,  N
58002,BANGALOW (FOWLERS LANE)                  ,-28.6477,153.5123,1/1/1900,1/5/2017,52.2,44,  N
48003,BANGATE                                  ,-29.2667,147.7667,NA,1/12/1969,75.3,90,  N
63255,BANGEROO NORTH                           ,-33.6333,148.6333,1/1/1918,1/2/1924,6.2,100,  N
66003,BANKSTOWN (CONDELL PARK)                 ,-33.9167,151.0167,1/1/1906,1/12/1979,60.8,82,  N
66137,BANKSTOWN AIRPORT AWS                    ,-33.9176,150.9837,1/7/1968,1/3/2022,53.8,100,  Y
70002,BANNABY (HILLASMOUNT)                    ,-34.4315,149.9958,1/1/1945,1/12/2012,67.4,99,  N
70003,BANNISTER STATION                        ,-34.6,149.5,1/1/1943,1/8/1977,34.5,99,  N
54085,BANNOCKBURN                              ,-29.5833,151.0333,NA,1/1/1925,36.1,100,  N
58003,BANYABBA STATE FOREST                    ,-29.35,152.9833,1/1/1940,1/10/1963,22.3,94,  N
53007,BARADINE (CALEDONIA)                     ,-30.9833,148.8667,1/9/1911,1/6/1961,49.1,98,  N
53075,BARADINE (WOODVILLE)                     ,-30.8838,148.8098,1/9/1966,1/7/2014,47.8,100,  N
53002,BARADINE FORESTRY                        ,-30.9469,149.0654,1/3/1944,1/3/2022,76.1,97,  N
53001,BARADINE POST OFFICE                     ,-30.948,149.0663,NA,1/4/2019,137.9,100,  N
65047,BARBIGAL                                 ,-32.25,148.7833,1/8/1904,1/1/1924,13.9,71,  N
59044,BARCOONGERE STATE FORESTRY               ,-29.9667,153.2167,1/1/1953,1/3/1960,6.3,87,  N
74094,BARELLAN (NEREENA)                       ,-34.2208,146.4586,1/12/1901,1/11/2010,96.3,88,  N
74005,BARELLAN POST OFFICE                     ,-34.2849,146.5714,NA,1/2/2022,143.4,99,  N
68193,BARGO POST OFFICE                        ,-34.2833,150.5833,1/4/1902,1/9/1970,21.6,31,  N
75003,BARHAM (THULE STREET)                    ,-35.6293,144.1246,NA,1/2/2012,111.9,97,  N
75002,BARHAM 2                                 ,-35.6,144.1,NA,1/12/1963,55.2,85,  N
75084,BARMAH STATE FOREST                      ,-35.6333,144.1167,1/3/1953,1/4/1980,26.2,96,  N
73000,BARMEDMAN POST OFFICE                    ,-34.1442,147.386,NA,1/1/2022,134,99,  N
48132,BARNATO 1                                ,-31.55,145,NA,1/1/1916,31.1,89,  N
52034,BARNATO 2                                ,-28.8,149.6,1/6/1902,1/6/1933,31.1,100,  N
48090,BARNATO TANK                             ,-31.6,144.9,1/12/1941,1/9/1946,4.6,95,  N
61370,BARNSLEY (BENDIGO STREET)                ,-32.9336,151.5792,1/1/1991,1/4/1997,6.3,100,  N
74135,BAROOGA                                  ,-35.8833,145.8,NA,1/12/1915,21,100,  N
54119,BARRABA (CAMPO SANTO)                    ,-30.3614,150.467,1/5/1966,1/10/1996,30.3,99,  N
54003,BARRABA (CLIFTON LANE)                   ,-30.3833,150.6083,NA,1/3/2022,140.6,100,  N
54024,BARRABA (LOG CABIN)                      ,-30.4291,150.5298,1/1/1966,1/9/2016,45.8,90,  N
54021,BARRABA (MOUNT LINDSAY)                  ,-30.3209,150.2734,NA,1/3/2022,128.1,94,  N
54023,BARRABA (NERANGHI)                       ,-30.2948,150.8103,1/1/1908,1/2/2022,113.3,99,  N
54102,BARRABA (ROSEVALE)                       ,-30.3735,150.6723,1/6/1964,1/1/2022,57.7,100,  N
54116,BARRABA (TREBORANE)                      ,-30.303,150.6935,1/1/1965,1/3/2015,50.3,100,  N
63008,BARRALLIER                               ,-34.3,150.0667,1/6/1936,1/1/1971,29.3,84,  N
68191,BARRALLIER (BELL BIRD)                   ,-34.3,150.0667,1/4/1971,1/4/1973,2.1,100,  N
68178,BARREN GROUNDS NATURE RES.               ,-34.6833,150.7167,1/4/1973,1/10/1976,3.6,100,  N
68217,BARRENGARRY (THE OLD SCHOOL HOUSE)       ,-34.6866,150.5253,1/11/1982,1/2/2022,36.4,93,  N
60049,BARRINGTON (CONEAC)                      ,-31.8667,151.8333,1/8/1961,1/8/1970,5.1,56,  N
61418,BARRINGTON TOPS (MOUNT BARRINGTON)       ,-32.04,151.4039,1/11/2009,1/3/2022,9,72,  N
48004,BARRINGUN                                ,-29.0128,145.7132,NA,1/12/2015,129.9,97,  N
48197,BARRINGUN (MILANDA)                      ,-29.2167,145.5667,1/4/1970,1/9/1970,0.5,100,  N
48192,BARROW VALE                              ,-31.65,145.8333,NA,1/12/1918,38,100,  N
63002,BARRY                                    ,-33.65,149.2667,1/1/1916,1/3/1979,60.5,96,  N
61027,BARSHAM                                  ,-31.8,150.9,NA,1/3/1927,38.7,85,  N
57114,BARYULGIL (CLARENCE RIVER)               ,-29.1967,152.595,1/12/2000,1/3/2022,21.3,100,  N
57120,BARYULGIL (MOOKIMA)                      ,-29.1961,152.72,1/7/1987,1/2/1995,7.4,97,  N
57051,BARYULGIL (MOUNTAIN VIEW)                ,-29.1912,152.5905,1/7/1961,1/9/2009,46.3,96,  N
57077,BARYULGIL (YUGILBAR)                     ,-29.2,152.5,1/12/1964,1/7/1979,14.7,100,  N
63003,BASSETT DOWNS                            ,-33.75,148.7,1/1/1900,1/12/1968,68.5,99,  N
61378,BATEAU BAY (ROTHERHAM ST)                ,-33.3806,151.4544,1/10/1993,1/10/1997,4.1,100,  N
69134,BATEMANS BAY (CATALINA COUNTRY CLUB)     ,-35.7234,150.1872,1/1/1985,1/3/2022,32.3,87,  N
69052,BATEMANS BAY - BUCKENBOWRA               ,-35.7343,150.0508,1/1/1943,1/2/2022,79.1,100,  N
69001,BATEMANS BAY POST OFFICE                 ,-35.7086,150.1769,NA,1/2/1996,100.3,100,  N
63306,BATHURST  (THE ROCKS)                    ,-33.422,149.4057,1/4/1996,1/2/2020,11.4,48,  N
63225,BATHURST (FREEMANTLE (BIG BULLEN))       ,-33.1208,149.365,1/8/2004,1/10/2004,0.3,100,  N
63187,BATHURST (MACHATTIE PARK)                ,-33.4,149.6,NA,1/1/1927,30.3,100,  N
63305,BATHURST AG COMPARISON                   ,-33.43,149.555,1/5/1996,1/6/2002,1.9,31,  N
63005,BATHURST AGRICULTURAL STATION            ,-33.4288,149.5559,1/7/1908,1/3/2022,113.8,100,  N
63291,BATHURST AIRPORT AWS                     ,-33.4119,149.654,1/6/1994,1/3/2022,27.8,100,  Y
63004,BATHURST GAOL                            ,-33.4167,149.55,NA,1/5/1983,124.3,99,  N
63287,BATHURST STANLEY STREET (MACQUARIE RIVER ,-33.4107,149.5843,1/12/2000,1/3/2022,21,98,  N
72082,BATLOW (HALLOWEEN)                       ,-35.5528,147.9827,1/3/1967,1/2/2022,53.6,97,  N
72005,BATLOW (VELVIN)                          ,-35.5,148.1,1/6/1947,1/5/1957,10,100,  N
72004,BATLOW POST OFFICE                       ,-35.5203,148.1453,NA,1/2/2022,135.4,100,  N
67109,BAULKHAM HILLS EUCALYPTUS CT             ,-33.7678,150.9814,1/12/2000,1/3/2022,21.3,100,  N
69124,BAWLEY POINT                             ,-35.5167,150.3833,1/1/1913,1/6/1920,6.9,92,  N
66127,BEACON HILL RAAF                         ,-33.75,151.25,1/10/1968,1/10/1973,5.1,100,  N
64000,BEARBUNG (ALLER)                         ,-31.6347,148.8464,1/6/1924,1/7/2018,83,88,  N
68247,BEAUMONT (THE CEDARS)                    ,-34.768,150.5622,1/1/1993,1/3/2022,29.3,100,  N
74006,BECKOM (STAWELL ST)                      ,-34.3251,146.957,1/1/1909,1/12/2015,89.4,84,  N
74261,BECKOM (WALLEROOBIE (GOLDEN VALLEY))     ,-34.531,146.9806,1/3/2003,1/3/2022,19.1,100,  N
50003,BEDGEREBONG POST OFFICE                  ,-33.3667,147.7,1/2/1951,1/10/1988,36.5,97,  N
49098,BEDOOBA                                  ,-32.3333,145.9167,NA,1/12/1924,43.8,100,  N
54135,BEEBO (MAURO)                            ,-28.7216,150.9285,1/1/1973,1/8/1998,24.8,96,  N
66129,BEECROFT                                 ,-33.75,151.0667,1/2/1905,1/12/1962,57.6,99,  N
67051,BEECROFT 1                               ,-33.7,151,NA,1/3/1920,31.6,100,  N
52035,BEETHOVEN (ROWEND)                       ,-29.7,148.6,1/1/1936,1/12/1940,5,100,  N
69002,BEGA (NEWTOWN ROAD)                      ,-36.6883,149.838,NA,1/3/2022,138.3,97,  N
69139,BEGA AWS                                 ,-36.6722,149.8191,1/6/1994,1/3/2022,27.8,100,  Y
73004,BEHTUNGRA POST OFFICE                    ,-34.7667,147.8667,NA,1/12/1968,39.3,49,  N
65043,BELAH VIEW                               ,-33.3,148.1,1/8/1938,1/7/1947,8.6,95,  N
68006,BELANGLO STATE FOREST                    ,-34.5367,150.2528,1/1/1940,1/9/1990,50.4,99,  N
51002,BELARINGAR STATION                       ,-31.7833,147.6,NA,1/4/1978,96.8,100,  N
70090,BELCONNEN (HOLT (PINE RIDGE))            ,-35.2389,148.9958,1/10/1999,1/8/2007,7.9,100,  N
70059,BELCONNEN (WEETANGERRA)                  ,-35.2439,148.9942,NA,1/12/1994,102.7,94,  N
74205,BELFRAYDEN (NORTH MAYFIELD)              ,-35.162,147.0274,1/5/1968,1/2/2022,53.8,100,  N
63200,BELGRAVIA                                ,-33.2,149.1167,1/8/1903,1/6/1924,20.9,100,  N
68228,BELLAMBI AWS                             ,-34.3691,150.9291,1/4/1997,1/3/2022,25,100,  Y
60000,BELLANGRY STATE FOREST 524               ,-31.3167,151.5833,1/9/1950,1/9/1990,25.5,64,  N
73111,BELLARWI (GLEN AVON)                     ,-34.1833,147.2,1/4/1968,1/1/1971,2.8,97,  N
53035,BELLATA (ABERFELDIE)                     ,-29.8401,149.3207,1/1/1902,1/2/2022,120.1,100,  N
53086,BELLATA (PLAIN ACRES)                    ,-30,149.8,1/5/1968,1/10/1978,10.3,98,  N
53003,BELLATA POST OFFICE                      ,-29.9182,149.7919,1/12/1912,1/2/2022,107.6,98,  N
68196,BELLAWONGARAH                            ,-34.7667,150.6333,1/11/1903,1/12/1919,15.8,98,  N
59000,BELLBROOK (EAST STREET)                  ,-30.8141,152.5129,NA,1/3/2017,127.1,99,  N
59122,BELLBROOK (MACLEAY RIVER)                ,-30.8217,152.5067,1/1/2001,1/3/2022,20.8,98,  N
59096,BELLBROOK (NULLA NULLA CRK HMSD)         ,-30.75,152.5,1/4/1970,1/3/1974,4,100,  N
60044,BELLBROOK (NUNDLE)                       ,-31.5833,151.2667,1/8/1961,1/12/1970,9.4,100,  N
59059,BELLBROOK (WILLI WILLI)                  ,-30.95,152.4167,1/1/1959,1/3/1982,18.6,80,  N
48007,BELLENBAR (FORDS BRIDGE)                 ,-29.595,145.555,1/8/1948,1/10/1989,38.1,92,  N
74136,BELLEVUE 1                               ,-35.25,146.5,NA,1/7/1926,29.6,94,  N
59134,BELLINGEN  (HYDE STREET)                 ,-30.4523,152.9008,1/9/1992,1/1/2015,20.4,91,  N
59130,BELLINGEN (CHELSEA)                      ,-30.4211,152.8089,1/4/1982,1/12/1990,8.7,99,  N
59094,BELLINGEN (THE OBSERVATORY)              ,-30.4167,152.8667,1/3/1985,1/2/1989,4,100,  N
59001,BELLINGEN POST OFFICE                    ,-30.4519,152.8979,NA,1/10/2002,103.6,100,  N
61080,BELLTREES 1                              ,-31.9833,151.15,NA,1/12/1941,63,100,  N
61098,BELLTREES HOMESTEAD                      ,-32,151.1333,NA,1/11/1978,49.7,54,  N
59150,BELLWOOD (NAMBUCCA HEADS (NAMBUCCA RESOR ,-30.6764,152.9822,1/3/2008,1/3/2022,14.1,100,  N
52036,BELMONT (ST.ELMO)                        ,-29.3,149.3,1/7/1925,1/11/1947,22.4,100,  N
61367,BELMONT NORTH (WOMMARA AVE)              ,-33.0228,151.6728,1/4/1990,1/11/1997,1.7,22,  N
61299,BELMONT WWTP                             ,-33.0464,151.6711,1/1/1990,1/12/2018,28.1,97,  N
71038,BELOKA (ALPINE MEADOWS)                  ,-36.5608,148.7053,NA,1/7/2010,29.9,24,  N
63148,BELOWRA                                  ,-33.7167,150,1/9/1959,1/4/1964,4.3,91,  N
69037,BELOWRA STATION                          ,-36.201,149.7106,1/1/1938,1/12/2019,81.9,100,  N
66188,BELROSE (EVELYN PLACE)                   ,-33.7402,151.2173,1/7/1991,1/3/2022,30.8,100,  N
69133,BEMBOKA (THE KNOB)                       ,-36.6631,149.5139,1/4/2006,1/3/2022,14.4,90,  N
69003,BEMBOKA POST OFFICE                      ,-36.6277,149.5706,NA,1/2/2022,131.6,99,  N
56143,BEN LOMOND                               ,-30,151.6,NA,1/11/1934,36.5,71,  N
56245,BEN LOMOND (BEULAH)                      ,-29.9594,151.605,1/9/2013,1/3/2022,8.6,100,  N
56138,BEN LOMOND (EMILY PARK)                  ,-29.9833,151.65,1/1/1959,1/9/1970,11.6,99,  N
56139,BEN LOMOND (KOALA)                       ,-29.9465,151.6066,1/1/1959,1/12/2021,62.8,100,  N
56189,BEN LOMOND (MOUNT PLEASANT)              ,-30.0167,151.7,1/2/1966,1/1/1974,6.9,86,  N
56137,BEN LOMOND (SPRINGWOOD)                  ,-29.9333,151.5833,1/8/1958,1/5/1970,11.8,100,  N
69004,BENANDRA STATE FOREST                    ,-35.6,150.2,1/6/1936,1/6/1959,23.1,100,  N
49001,BENANEE                                  ,-34.5,143,1/7/1929,1/12/1953,24.5,100,  N
73001,BENANGAROO                               ,-34.85,148.4,1/1/1915,1/12/1951,36.9,100,  N
69025,BENDALONG JACARANDA AV                   ,-35.25,150.5333,1/1/1971,1/4/1989,3.2,17,  N
68229,BENDALONG STP                            ,-35.2439,150.5097,1/5/1939,1/3/2022,78.2,94,  N
55296,BENDEMEER (BANALASTA)                    ,-30.7669,151.2475,1/1/1974,1/6/2012,38.5,100,  N
55111,BENDEMEER (BIRALEE)                      ,-30.7167,151.2167,1/1/1956,1/12/1973,16.5,92,  N
55308,BENDEMEER (BONNA)                        ,-30.8829,151.1619,1/11/2012,1/3/2022,9.4,100,  N
55112,BENDEMEER (BRAEMAR)                      ,-30.8,151.1833,1/9/1958,1/2/1971,12.5,100,  N
55004,BENDEMEER (CAROLINE ST)                  ,-30.8833,151.1546,NA,1/5/2015,135.7,100,  N
55096,BENDEMEER (DANEHURST)                    ,-30.6767,151.18,1/10/1958,1/10/1989,29.9,96,  N
55126,BENDEMEER (GLEN MORANGIE)                ,-30.8667,151.2333,1/9/1958,1/2/1967,8.5,100,  N
55109,BENDEMEER (GLENCLAIR)                    ,-30.7992,151.1089,1/1/1958,1/6/2015,57.4,100,  N
55124,BENDEMEER (GLENDON)                      ,-30.85,151.05,1/9/1958,1/9/1971,13,99,  N
55110,BENDEMEER (LONGFORD)                     ,-30.7667,151.1167,1/1/1959,1/4/1973,13.3,93,  N
55113,BENDEMEER (SUNNYSIDE)                    ,-30.8,151.3,1/2/1956,1/12/1973,11.9,66,  N
55095,BENDEMEER (WEST RETREAT)                 ,-30.6333,151.1,1/1/1959,1/12/1972,13.2,94,  N
55115,BENDEMEER (YARRAGOOL)                    ,-30.75,151.15,1/1/1959,1/7/1972,13.3,97,  N
73002,BENDICK                                  ,-34.2,148.4,1/9/1929,1/9/1950,19.8,94,  N
70316,BENDORA DAM                              ,-35.4424,148.8296,1/1/1974,1/10/2018,39.9,89,  N
75005,BENEREMBAH                               ,-34.5,145.8,NA,1/12/1973,82.8,87,  N
58078,BENTLEY                                  ,-28.7777,153.1133,1/6/1964,1/2/2014,49.2,99,  N
58202,BENTLEY (BACK CREEK)                     ,-28.7406,153.075,1/12/2000,1/3/2022,21.2,99,  N
63013,BERAMBING                                ,-33.5366,150.4413,1/4/1943,1/2/2022,75.4,95,  N
46054,BERAWINIA DOWNS                          ,-29.1833,143.5333,1/1/1903,1/4/1919,16.3,100,  N
68110,BERKELEY (NORTHCLIFFE DRIVE)             ,-34.483,150.8555,1/11/1962,1/2/2022,59.3,100,  N
67106,BERKSHIRE PARK FIRST RD                  ,-33.6708,150.7972,1/7/1992,1/3/1995,2.8,100,  N
69005,BERMAGUI SOUTH (YOUNG STREET)            ,-36.4269,150.0787,1/11/1924,1/1/2016,88.8,97,  N
67052,BEROWRA (GOODWYN ROAD)                   ,-33.625,151.1491,1/4/1903,1/1/2017,70.3,62,  N
70096,BERREBANGALO                             ,-34.9,149.2,NA,1/10/1949,58.2,100,  N
71022,BERRIDALE (BOLTON STREET)                ,-36.3676,148.8274,1/1/1947,1/3/2022,74.3,99,  N
71043,BERRIDALE (EUCUMBENE TROUT FARM)         ,-36.2743,148.7182,1/5/1973,1/2/2012,38.7,99,  N
71028,BERRIDALE (RAVENS HEAD)                  ,-36.4167,148.8667,NA,1/12/1931,30.8,95,  N
71027,BERRIDALE (WOOLWAY)                      ,-36.4,148.8,1/1/1908,1/5/1937,29.4,100,  N
71001,BERRIDALE PUBLIC SCHOOL                  ,-36.4,148.8,1/11/1926,1/2/1947,11.8,58,  N
74255,BERRIGAN (NEW SHILOH)                    ,-35.5879,145.7669,1/5/1994,1/1/2013,18.1,96,  N
74009,BERRIGAN POST OFFICE                     ,-35.6576,145.8124,NA,1/1/2016,141.1,100,  N
68092,BERRIMA (HILLVIEW)                       ,-34.4833,150.3667,1/7/1959,1/10/1967,8.3,99,  N
68186,BERRIMA WEST (MEDWAY (WOMBAT CREEK))     ,-34.4839,150.2867,1/5/1970,1/3/2022,51.3,99,  N
68091,BERRIMA WEST POST OFFICE                 ,-34.4833,150.2667,1/8/1959,1/12/1969,10.2,98,  N
74227,BERRY JERRY (GNADBRO)                    ,-35.0167,147.0333,NA,1/7/1911,29.5,100,  N
68003,BERRY MASONIC VILLAGE                    ,-34.781,150.6917,NA,1/4/2019,132.2,99,  N
73003,BERTHONG                                 ,-34.5,148.1,NA,1/12/1952,66.5,99,  N
73033,BETHUNGRA (RETREAT)                      ,-34.6437,147.7043,NA,1/11/2004,107.3,99,  N
73103,BETHUNGRA PARK                           ,-34.8,147.9,NA,1/5/1917,30.7,94,  N
69006,BETTOWYND (BELLARINGAH)                  ,-35.6972,149.7914,NA,1/3/2022,122.3,97,  N
69035,BETTOWYND (NOBBYS HILL)                  ,-35.7564,149.815,1/8/2001,1/3/2022,20.4,99,  N
56004,BEULAH                                   ,-30,151.7,NA,1/12/1953,56.4,100,  N
70218,BEVANDALE (WYANGALA)                     ,-34.5,149,1/1/1971,1/6/1975,4.1,91,  N
70205,BEVENDALE                                ,-34.55,149.0833,NA,1/12/1921,26.8,93,  N
70114,BEVENDALE (KAFFNA)                       ,-34.55,149.0833,1/3/1961,1/1/1994,7.9,24,  N
70295,BEVENDALE (RIVERVIEW)                    ,-34.5327,149.1208,1/3/1978,1/2/2022,44,100,  N
66004,BEXLEY BOWLING CLUB                      ,-33.943,151.1098,1/3/1931,1/6/2008,73.9,96,  N
70111,BIALA (ALVISON)                          ,-34.5612,149.2497,1/1/1938,1/12/2021,84,100,  N
64001,BIAMBLE                                  ,-31.75,149.2,NA,1/12/1948,62.2,97,  N
70291,BIBBENLUKE (BLACK LAKE)                  ,-36.85,149.3,1/6/1963,1/11/1974,11.5,100,  N
64003,BIDDEN SCHOOL                            ,-31.6,148.8,1/8/1927,1/1/1960,28.4,87,  N
64002,BIDDEN STATE FOREST                      ,-31.6,148.8,1/8/1936,1/4/1963,25.5,95,  N
70119,BIG HILL (GLEN DUSK)                     ,-34.5679,149.997,1/2/1944,1/3/2022,74.5,95,  N
72006,BIG SPRINGS                              ,-35.3,147.4,NA,1/1/1953,65.1,100,  N
63201,BIGGA (BIGGA ST)                         ,-34.0838,149.1504,NA,1/3/2022,29.3,23,  N
63211,BIGGA (GREENMANTLE)                      ,-33.9301,149.0966,1/2/1961,1/12/2007,46.4,99,  N
63094,BIGGA (WOOLBROOK)                        ,-33.9964,149.1235,NA,1/12/2018,128.3,100,  N
63116,BIGGA (WYOMING)                          ,-34.0861,149.1391,1/1/1938,1/6/2010,72.5,100,  N
58142,BILAMBIL                                 ,-28.2333,153.4667,NA,1/6/1914,24.8,95,  N
74145,BILLAAH                                  ,-34.5833,146.8167,NA,1/12/1926,10.1,32,  N
57002,BILLABONG                                ,-30.2,151.9,1/4/1941,1/2/1991,24.8,50,  N
72007,BILLAPALOOLA STATE FOREST                ,-35.2667,148.3833,1/5/1938,1/10/1969,31.4,100,  N
51106,BILLEROY                                 ,-30.6833,148.4333,1/6/1907,1/9/1916,9.3,100,  N
58083,BILLINUDGEL                              ,-28.5042,153.5267,1/5/1903,1/4/1934,29.1,94,  N
63118,BILPIN (FERN GROVE)                      ,-33.5157,150.4892,NA,1/2/2022,129.3,100,  N
63182,BILPIN (MOUNTAIN LAGOON)                 ,-33.45,150.6333,1/11/1962,1/9/1973,10.9,100,  N
63290,BILPIN POST OFFICE                       ,-33.4983,150.5215,1/5/1988,1/3/2022,33.9,100,  N
73061,BIMBI                                    ,-34.0667,147.9167,1/4/1901,1/12/1936,31.5,88,  N
73005,BINALONG POST OFFICE                     ,-34.6704,148.6338,NA,1/12/2015,111.2,94,  N
63007,BINDA POST OFFICE                        ,-34.3238,149.3632,1/3/1905,1/10/2014,82.1,75,  N
47006,BINDARA (NETLEY)                         ,-32.75,142.3,NA,1/3/1956,78.1,98,  N
54106,BINGARA (CROMARTY)                       ,-30.0617,150.7589,1/1/1936,1/6/2009,56,76,  N
54014,BINGARA (DERRA DERRA)                    ,-29.9198,150.3744,NA,1/12/2006,103.4,96,  N
54123,BINGARA (DERRALEA)                       ,-29.82,150.3876,1/1/1967,1/12/2005,34.9,89,  N
54081,BINGARA (GLENROY)                        ,-29.7027,150.4096,1/1/1962,1/12/2021,39.3,66,  N
54039,BINGARA (KEERA)                          ,-29.9943,150.7812,NA,1/2/2022,135.2,98,  N
54019,BINGARA (LUCUNDA)                        ,-29.9167,150.4167,1/1/1930,1/2/1974,44,100,  N
54090,BINGARA (PALLAL)                         ,-29.9198,150.3744,1/1/1900,1/3/2019,118.3,99,  N
54111,BINGARA (WINSTON)                        ,-29.865,150.5767,1/1/1965,1/10/1972,3.2,40,  N
54004,BINGARA POST OFFICE                      ,-29.8673,150.5715,NA,1/3/2022,140.8,98,  N
53037,BINIGUY (SPRINGFIELD)                    ,-29.6,150.1,1/1/1914,1/5/1953,39.4,100,  N
64013,BINNAWAY (HAWTHORNE)                     ,-31.6417,149.427,NA,1/12/2020,133.8,99,  N
64004,BINNAWAY (WATTLE ST)                     ,-31.5553,149.3829,1/5/1901,1/3/2019,114.7,97,  N
64037,BINNIA DOWNS                             ,-31.6667,149.75,NA,1/12/1915,34.8,99,  N
74073,BINYA (MERRIBEE)                         ,-34.3,146.35,NA,1/4/1977,96.3,100,  N
75058,BINYA (ROCKLEIGH)                        ,-34.15,146.3,1/1/1915,1/10/1951,36.8,100,  N
75006,BINYA POST OFFICE                        ,-34.2289,146.3444,NA,1/12/2021,134.5,92,  N
66178,BIRCHGROVE SCHOOL                        ,-33.85,151.1833,1/5/1904,1/6/1910,5.9,96,  N
60090,BIRDWOOD                                 ,-31.3422,152.341,1/1/1969,1/2/2022,53,100,  N
60051,BIRDWOOD (ELBEE GLEN)                    ,-31.2833,152.3,1/8/1961,1/2/1973,9.9,86,  N
55150,BITHRAMERE (FAIRVIEW)                    ,-31.1,150.8167,1/8/1958,1/12/1969,11.1,97,  N
55232,BIWONDAH                                 ,-30.8833,150.1167,NA,1/10/1916,27.3,97,  N
55005,BLACK CREEK                              ,-31.65,150.2,1/1/1915,1/8/1956,41.7,100,  N
47059,BLACK GATE                               ,-32.1333,142.7167,NA,1/1/1977,32.7,41,  N
56218,BLACK MOUNTAIN (ST.ELMO)                 ,-30.35,151.3833,1/5/1973,1/8/1976,3,90,  N
69144,BLACK RANGE (GRANDVIEW LANE)             ,-36.7263,149.8426,1/12/2014,1/3/2022,7.3,100,  N
63188,BLACK SPRINGS                            ,-33.85,149.75,NA,1/12/1937,48.5,100,  N
63080,BLACK SPRINGS (SWATCHFIELD)              ,-33.8905,149.7103,1/3/1937,1/1/2009,71.6,99,  N
63087,BLACK SPRINGS FORESTRY                   ,-33.8462,149.7396,1/12/1939,1/11/2012,71.1,97,  N
56203,BLACK SWAMP (ATHLYNE)                    ,-29.0455,152.1343,1/1/1968,1/12/2012,41.3,92,  N
56202,BLACK SWAMP (MAXWELL)                    ,-28.9776,152.1552,1/1/1978,1/3/2022,44.3,100,  N
68246,BLACKBUTT (TAMMAR PLACE)                 ,-34.5707,150.8383,1/1/2002,1/3/2022,20.3,100,  N
63171,BLACKHEATH (CLIFFVIEW)                   ,-33.6667,150.2667,1/3/1962,1/5/1967,5.2,98,  N
63009,BLACKHEATH (EVANS LOOKOUT RD)            ,-33.6501,150.2931,NA,1/12/2017,120,100,  N
63295,BLACKHEATH (WOMBAT STREET)               ,-33.6297,150.2803,1/7/1996,1/3/2022,22,85,  N
63202,BLACKHEATH 1                             ,-33.6167,150.3,NA,1/8/1906,11.3,98,  N
63281,BLACKHEATH M.C.A.                        ,-33.6333,150.2833,1/9/1981,1/10/1983,2.2,100,  N
60167,BLACKMANS POINT (THE HATCH)              ,-31.3659,152.837,1/4/2012,1/6/2020,7.3,88,  N
67059,BLACKTOWN                                ,-33.7694,150.8856,1/11/1963,1/9/1993,29.9,100,  N
55081,BLACKVILLE (GLASSTON)                    ,-31.8,150.4167,1/2/1904,1/2/1968,30,47,  N
55297,BLACKVILLE (JUNBARLEE)                   ,-31.6982,150.2471,1/1/1957,1/11/2014,45,78,  N
55237,BLACKVILLE (KOUMALA)                     ,-31.6683,150.325,1/3/1965,1/12/1995,30.8,100,  N
61002,BLACKVILLE (KRUI VALE)                   ,-31.8469,150.341,NA,1/11/2021,136.9,100,  N
55061,BLACKVILLE (WELTON DALE)                 ,-31.75,150.25,NA,1/5/1976,84.3,92,  N
55300,BLACKVILLE (WIMBOYNE)                    ,-31.5833,151.1833,1/3/1975,1/1/1978,0.4,14,  N
55203,BLACKVILLE 2                             ,-31.6,150.2,NA,1/1/1912,18.8,100,  N
55006,BLACKVILLE POST OFFICE                   ,-31.6405,150.2356,NA,1/2/2022,134,94,  N
61099,BLAIR MORE 2                             ,-32.2,150.8667,1/1/1900,1/11/1924,24.9,100,  N
75094,BLAIRGOWRIE                              ,-34.6,146,NA,1/9/1926,29.2,86,  N
55226,BLAIRMORE 1                              ,-30.7833,149.8833,NA,1/11/1914,21.7,88,  N
73062,BLAND                                    ,-33.9667,147.8,1/8/1901,1/7/1918,16.7,98,  N
61372,BLANDFORD (PAGES RIVER)                  ,-31.8017,150.925,1/6/2001,1/3/2022,20.6,99,  N
63184,BLAXLAND RIDGE                           ,-33.5,150.75,1/11/1962,1/9/1979,16.9,100,  N
63230,BLAXLAND WESTERN HIGHWAY                 ,-33.75,150.6,1/5/1968,1/9/1980,12.4,100,  N
63279,BLAYNEY (ATHOL)                          ,-33.5333,149.2667,NA,1/3/1901,14.3,88,  N
63294,BLAYNEY (ORANGE ROAD)                    ,-33.5284,149.2454,1/4/1990,1/9/2020,28.8,94,  N
63086,BLAYNEY (VITTORIA)                       ,-33.45,149.3333,1/1/1902,1/6/1977,70.5,93,  N
63010,BLAYNEY POST OFFICE                      ,-33.535,149.26,NA,1/7/1992,107.2,100,  N
50097,BLOW CLEAR                               ,-33.7167,147.1667,NA,1/12/1920,30.3,98,  N
72056,BLOWERING DAM                            ,-35.3946,148.2469,1/3/1955,1/2/2022,66.1,99,  N
49100,BLUE HILL                                ,-33.6833,144.0667,1/7/1911,1/6/1922,10.7,97,  N
58204,BOAT HARBOUR (ROUS RIVER)                ,-28.3217,153.3467,1/12/2000,1/3/2022,21.3,100,  N
50053,BOBADAH (AVOCA)                          ,-32.2833,146.7,NA,1/7/1948,47.7,95,  N
50111,BOBADAH (KALABRA)                        ,-32.4333,146.6,1/9/1968,1/6/1977,8.8,100,  N
50128,BOBADAH (MELROSE)                        ,-32.65,146.9333,NA,1/12/1908,37,100,  N
50029,BOBADAH (MURRUMBONG)                     ,-32.3,146.5833,1/10/1936,1/11/1949,13.2,100,  N
50132,BOBADAH (PANJIE PARK)                    ,-32.0333,146.85,NA,###############################################################################################################################################################################################################################################################,18,100,  N
50125,BOBADAH (PRETTY VIEW)                    ,-32.3108,146.6723,1/1/1956,1/11/2021,45.5,69,  N
50072,BOBADAH (THE GLEN)                       ,-32.3667,146.7833,NA,1/10/1936,45.2,97,  N
60046,BOBIN (BOBIN CREEK)                      ,-31.6877,152.2688,1/8/1961,1/2/2022,54.9,91,  N
70004,BOBUNDARA                                ,-36.5,148.9,NA,1/1/1953,66.9,95,  N
69103,BODALLA (TYRONE)                         ,-36.1333,149.9833,1/5/1970,1/5/1974,2.6,63,  N
69036,BODALLA POST OFFICE                      ,-36.0876,150.051,NA,1/2/2022,139.9,96,  N
69007,BODALLA STATE FOREST                     ,-36.15,150.1,1/7/1936,1/10/1961,25.3,100,  N
65003,BODANGORA POST OFFICE                    ,-32.45,149,NA,1/9/1968,66.1,96,  N
50004,BOGAN GATE POST OFFICE                   ,-33.1074,147.8008,NA,1/7/2017,111.6,90,  N
53078,BOGGABILLA (BOONAL)                      ,-28.7167,150.5667,NA,1/9/1972,53.5,72,  N
53084,BOGGABILLA (SABER DOWNS)                 ,-28.8167,150.2667,1/12/1966,1/3/1974,7.3,100,  N
53079,BOGGABILLA (TRINKEY)                     ,-28.6167,150.05,1/1/1966,1/4/1973,7.3,100,  N
53004,BOGGABILLA POST OFFICE                   ,-28.6024,150.3604,NA,1/5/2010,117.2,100,  N
55268,BOGGABRI (BE-BARA)                       ,-30.8325,149.7745,1/9/1966,1/12/2021,53.8,97,  N
55269,BOGGABRI (CALOOLA)                       ,-30.6667,149.8833,1/9/1966,1/1/1979,12.4,100,  N
55020,BOGGABRI (GHOOLENDAADI)                  ,-30.8333,149.9167,NA,1/4/1975,103.5,97,  N
55076,BOGGABRI (KANOWNDA)                      ,-30.5121,150.2119,NA,1/12/2021,121.3,99,  N
55033,BOGGABRI (MAYFIELD)                      ,-30.6167,150.25,1/10/1934,1/2/1986,49.3,96,  N
55265,BOGGABRI (MERRIENDI)                     ,-30.54,150.0233,1/12/1966,1/7/1997,27.8,90,  N
55034,BOGGABRI (MILCHENGOWRIE)                 ,-30.7451,150.0548,NA,1/12/2012,117.7,94,  N
55273,BOGGABRI (NEOTSFIELD)                    ,-30.8202,149.8366,1/5/1968,1/12/2019,50.7,98,  N
55044,BOGGABRI (RETREAT)                       ,-30.7044,150.2767,NA,1/3/2022,123.1,100,  N
54030,BOGGABRI (WILLEROI)                      ,-30.4333,150.3167,1/2/1942,1/6/1966,17.8,73,  N
55264,BOGGABRI (WILLOWDALE)                    ,-31.5103,150.19,1/12/1966,1/12/1984,18,99,  N
55204,BOGGABRI 2                               ,-30.7,150,1/7/1912,1/12/1936,21.8,89,  N
55007,BOGGABRI POST OFFICE                     ,-30.7056,150.0458,NA,1/2/2022,137.3,100,  N
65044,BOGO BOGOLOG                             ,-33.9,148.3,NA,1/11/1920,34.8,100,  N
50005,BOLAGAMY                                 ,-33.8,146.9667,NA,1/12/1971,86.2,99,  N
56049,BOLIVIA (ESPERANZA STATION)              ,-29.25,151.8333,1/1/1953,1/8/1974,21.7,100,  N
56048,BOLIVIA POST OFFICE                      ,-29.3,151.95,1/7/1954,1/3/1973,16.8,90,  N
61133,BOLTON POINT (THE RIDGE WAY)             ,-32.9906,151.6099,1/4/1962,1/4/2021,43.1,73,  N
58064,BOM BOM STATE FOREST                     ,-29.45,152.5833,1/3/1954,1/4/1960,5.8,94,  N
68136,BOMADERRY                                ,-34.85,150.6167,1/3/1903,1/6/1938,35.3,100,  N
48008,BOMALLI                                  ,-29.4333,147.55,1/7/1913,1/6/1969,54.1,97,  N
70154,BOMBALA (BANOOL)                         ,-36.7333,149.1167,1/5/1962,1/2/1976,13.8,99,  N
70013,BOMBALA (CAMBALONG)                      ,-36.8878,149.1107,1/1/1920,1/5/2017,92.2,95,  N
69108,BOMBALA (MOUNTAIN TOP)                   ,-37.0688,149.2957,1/1/2002,1/12/2014,12.9,99,  N
69060,BOMBALA (NUNGATTA)                       ,-37.2333,149.4,NA,1/11/1978,46.5,52,  N
70005,BOMBALA (THERRY STREET)                  ,-36.9113,149.2379,NA,1/3/2022,137.3,100,  N
70158,BOMBALA (WOODBURN)                       ,-37.0343,149.1547,1/5/1962,1/10/2011,48.3,97,  N
70328,BOMBALA AWS                              ,-37.0016,149.2336,1/6/1994,1/3/2022,27.8,100,  Y
55205,BOMERA                                   ,-31.4,149.9,NA,1/12/1923,41.9,97,  N
57078,BONALBO OLD (GLEN HUON HMSD)             ,-28.5333,152.7,1/12/1964,1/5/1968,3.5,100,  N
57075,BONALBO OLD (KILLALIE)                   ,-28.55,152.6,1/12/1964,1/8/1966,1.8,100,  N
57003,BONALBO POST OFFICE                      ,-28.7369,152.6228,1/12/1913,1/3/2022,76.8,71,  N
66112,BONDI                                    ,-33.8833,151.2833,NA,1/12/1924,36.5,96,  N
66005,BONDI BOWLING CLUB                       ,-33.8833,151.2667,1/7/1939,1/10/1982,42,97,  N
48134,BONEDA                                   ,-29.4,146.7,1/8/1910,1/8/1943,23.5,71,  N
73063,BONGALONG                                ,-34.8,148.1333,NA,1/12/1919,18.9,92,  N
51060,BONGEABONG                               ,-31.7,148.6,NA,1/5/1933,38.1,98,  N
73064,BONGONGOLONG                             ,-35.0167,148.0667,1/9/1902,1/12/1930,28.3,100,  N
47085,BONNIE DOON (MURRAY RIVER)               ,-34.3167,142.35,1/1/1906,1/9/1925,15.4,78,  N
60077,BONNY HILLS POST OFFICE                  ,-31.6,152.85,1/6/1970,1/1/1971,0.7,100,  N
54007,BONSHAW (CAMPBELL ST)                    ,-29.0484,151.2766,NA,1/1/2022,125.8,92,  N
54160,BONSHAW (CORNVALE)                       ,-29.1199,151.2942,1/5/1989,1/2/2022,24.2,74,  N
54157,BONSHAW (GLENROCK)                       ,-29.2167,151.3833,1/11/1985,1/1/1989,3.3,100,  N
56210,BONSHAW (HAYSTACK)                       ,-29.2167,151.3833,1/11/1971,1/12/1979,4.3,52,  N
56041,BONSHAW (MONKSTADT)                      ,-29.1333,151.45,1/1/1954,1/12/1970,16.3,96,  N
54037,BONSHAW (RIVERVIEW)                      ,-29.1833,151.3833,1/8/1956,1/1/1958,1.5,100,  N
73146,BOOKHAM (GARRY ST)                       ,-34.8157,148.6416,1/8/2003,1/1/2004,0.5,100,  N
75095,BOOKIT ISLAND                            ,-35.5,144.3,1/6/1912,1/1/1932,19.7,100,  N
47086,BOOLA BOOLKA                             ,-32.3333,143,NA,1/12/1924,38.3,91,  N
53005,BOOLCARROL                               ,-30.0667,149.4333,NA,1/12/1971,93,100,  N
49128,BOOLIGAL (ARRAWATTA)                     ,-33.7667,144.4667,NA,1/1/1908,15.3,78,  N
75007,BOOLIGAL (BELMONT)                       ,-33.8436,144.9073,NA,1/3/2022,131.6,100,  N
49112,BOOLIGAL (DAISY PLAINS)                  ,-33.5667,144.6667,1/1/1950,1/2/1974,24.2,100,  N
49034,BOOLIGAL (MYCUMBENE)                     ,-33.9333,144.7833,1/7/1911,1/4/1973,54.5,88,  N
49118,BOOLIGAL (TOMS LAKE)                     ,-33.7073,144.7667,1/1/1935,1/5/2019,84.4,100,  N
75069,BOOLIGAL (ULONGA)                        ,-34.0965,144.6529,NA,1/2/2022,135.9,93,  N
49092,BOOLIGAL (YAMBA)                         ,-33.6959,144.2757,1/2/2002,1/3/2022,20.2,100,  N
49133,BOOLIGAL (YARTO)                         ,-33.516,144.7651,1/5/2005,1/3/2022,16.9,100,  N
74012,BOOMANOOMANA                             ,-36,145.8,NA,1/2/1949,69.1,86,  N
70209,BOOMBALA (PATANGA)                       ,-37.0667,149.2667,1/1/1967,1/9/1975,8.3,95,  N
52004,BOOMI (BARWON ST)                        ,-28.7245,149.5757,1/1/1908,1/12/2016,108,99,  N
53106,BOOMI (KUNOPIA)                          ,-28.7167,149.65,NA,1/8/1900,15.3,100,  N
53077,BOOMI (KURRAJONG)                        ,-28.7437,149.8225,1/12/1966,1/3/2005,38.3,100,  N
50006,BOONA WEST                               ,-32.8,147,1/1/1936,1/7/1949,13.6,100,  N
56141,BOONOO BOONOO (CURRAWONG)                ,-28.8867,152.1144,1/1/1992,1/2/2022,30.2,100,  N
56215,BOONOO BOONOO POST OFFICE                ,-28.8833,152.1,1/1/1969,1/3/1974,4.8,91,  N
52043,BOOREEGAMMA                              ,-28.9167,149.2333,NA,1/6/1918,32.5,100,  N
56144,BOOROLONG                                ,-30.3,151.5,NA,1/3/1938,65.4,99,  N
74013,BOOROOLA                                 ,-35.4667,145.0167,1/1/1950,1/8/1960,10.7,100,  N
48135,BOOROOMUGGA BACK                         ,-31.3,146.3,1/1/1904,1/4/1926,13.7,61,  N
48136,BOOROONDARA TANK                         ,-31.1,145.4,NA,1/12/1938,47.1,100,  N
75056,BOOROORBAN (RAMSAY)                      ,-34.939,144.7352,1/1/1923,1/5/2017,92.4,98,  N
75009,BOOROORBAN POST OFFICE                   ,-34.9333,144.7667,1/1/1923,1/10/1985,57.2,91,  N
70300,BOOROWA 2                                ,-34.45,148.8,NA,1/4/1906,10.3,99,  N
70301,BOOROWA 3                                ,-34.45,148.7167,NA,1/12/1907,26.1,100,  N
70220,BOOROWA POST OFFICE                      ,-34.4382,148.7158,NA,1/1/2019,136.3,99,  N
48010,BOPPY MOUNTAIN (BOOROOMA)                ,-31.2,146.4,1/7/1942,1/8/1954,12.2,100,  N
48012,BORA                                     ,-29.5,146.55,1/6/1933,1/6/1951,18.1,100,  N
53050,BORAH                                    ,-28.95,149.6,NA,1/2/1911,13.5,100,  N
62050,BORAMBIL (ROSEBUD)                       ,-32.1,149.9833,1/11/1961,1/6/1979,17.7,100,  N
72155,BORAMBOLA                                ,-35.2,147.6833,NA,1/12/1925,37.5,94,  N
74014,BOREE CREEK  (RICHMOND ST)               ,-35.1084,146.6096,1/9/1924,1/4/2014,88.3,98,  N
65110,BORENORE (LYNDEN-BRAE)                   ,-33.2542,148.9753,1/8/2007,1/3/2022,14.7,100,  N
63011,BORENORE STORE                           ,-33.2537,148.9751,1/5/1903,1/3/2010,96.1,90,  N
59049,BOSTOBRICK POST OFFICE                   ,-30.2833,152.6333,1/9/1962,1/4/1982,18.2,92,  N
64019,BOSTON (GOLLAN)                          ,-32.2833,149.0833,1/12/1962,1/7/1973,10.6,99,  N
66007,BOTANY NO.1 DAM                          ,-33.9333,151.2167,NA,1/12/1978,98.8,91,  N
62067,BOTOBOLAR LOWER                          ,-32.4833,149.7833,1/9/1900,1/8/1920,18.8,94,  N
46137,BOULLIA                                  ,-30.0708,141.8795,1/8/2017,1/3/2022,4.7,100,  Y
57072,BOUNDARY CREEK                           ,-29.5333,152.2667,1/1/1965,1/4/1965,0.3,100,  N
48133,BOURKE (BEEMERY)                         ,-29.95,146.4333,NA,1/3/1972,55.3,62,  N
48242,BOURKE (BEN LOMOND)                      ,-30.5888,145.789,1/1/1997,1/12/2000,3.6,90,  N
48205,BOURKE (GUNDABOOKA STATION)              ,-30.4065,145.4997,1/1/2006,1/2/2022,15.8,98,  N
48172,BOURKE (ROSSMORE)                        ,-30.05,146.2167,1/11/1966,1/10/1972,6,100,  N
48049,BOURKE (YANDA)                           ,-30.3446,145.5763,1/11/1906,1/3/2006,92.3,93,  N
48239,BOURKE AIRPORT                           ,-30.0423,145.952,1/11/1994,1/6/2009,14.7,100,  N
48245,BOURKE AIRPORT AWS                       ,-30.0362,145.9521,1/12/1998,1/3/2022,23.2,99,  Y
48137,BOURKE NORTH                             ,-30.1,146,NA,1/3/1938,46.8,99,  N
48013,BOURKE POST OFFICE                       ,-30.0917,145.9358,NA,1/8/1996,124.5,99,  N
63301,BOWEN MOUNTAIN (GRANDVIEW LANE)          ,-33.5783,150.6336,1/4/1959,1/11/2007,48.5,100,  N
55191,BOWLING ALLEY POINT (GOONOOLETTE)        ,-31.3667,151.1167,1/8/1958,1/11/1977,19.3,100,  N
55298,BOWLING ALLEY POINT (POPLARS)            ,-31.3984,151.1527,NA,1/6/2009,52.3,47,  N
61270,BOWMANS CREEK (GRENELL)                  ,-32.2714,151.1444,1/3/1969,1/2/2022,53,100,  N
73050,BOWNING (WANGANUI)                       ,-34.7614,148.8252,1/1/1907,1/3/2022,91.5,79,  N
73065,BOWNING 1                                ,-34.8,148.8,NA,1/8/1920,30.3,93,  N
73066,BOWNING 2                                ,-34.8,148.8,1/1/1907,1/8/1920,11.3,82,  N
59138,BOWRA SUGARLOAF                          ,-30.6623,152.6535,1/12/2000,1/2/2022,21,99,  N
68101,BOWRAL  (RIVERSIDE)                      ,-34.5397,150.4785,1/11/1961,1/5/2006,36.9,83,  N
68255,BOWRAL (ORCHARD ST)                      ,-34.4875,150.4014,1/11/2004,1/3/2022,16.8,96,  N
68102,BOWRAL (PARRY DRIVE)                     ,-34.4869,150.4019,1/10/1961,1/1/2015,52.8,99,  N
68184,BOWRAL CENTENNIAL ROAD                   ,-34.4667,150.3833,1/1/1967,1/7/1977,10.3,98,  N
68005,BOWRAL POST OFFICE                       ,-34.5,150.4,NA,1/11/1965,80.9,100,  N
59110,BOWRAVILLE (COW COWNTY)                  ,-30.6688,152.7638,1/9/1973,1/2/2022,48.4,100,  N
59038,BOWRAVILLE (WEEROONA)                    ,-30.6833,152.75,1/1/1933,1/8/1973,40.7,100,  N
59002,BOWRAVILLE RECREATION CLUB               ,-30.65,152.8486,NA,1/2/2022,131.8,100,  N
51003,BOX COWELL                               ,-31.6,147.4,NA,1/12/1951,67.3,97,  N
49006,BOX CREEK TANK                           ,-34.2,143.5,NA,1/12/1953,60,91,  N
70186,BOX FOREST                               ,-34.5,149.5,NA,1/4/1901,5.8,100,  N
70006,BOX GULLY                                ,-34.65,150.25,1/4/1945,1/10/1967,18.7,83,  N
67104,BOX HILL (MCCALL GARDENS)                ,-33.6542,150.8931,1/7/1990,1/3/2022,28,88,  N
67101,BOX HILL JUNCTION ROAD                   ,-33.6649,150.878,1/6/1985,1/12/1995,9.8,92,  N
69109,BOYD EAST (EDROM)                        ,-37.1,149.8,1/5/1947,1/12/1947,0.7,100,  N
69009,BOYD EAST STATE FOREST                   ,-37.1,149.9,1/5/1938,1/6/1946,8.2,100,  N
68099,BOYTON LEA                               ,-34.4333,150.3333,1/9/1960,1/4/1968,7.7,100,  N
57054,BRACKENDALE (LAKESIDE)                   ,-31.2493,151.6603,1/5/2008,1/5/2015,5.5,78,  N
57050,BRACKENDALE (THE LAKE)                   ,-31.2166,151.6943,1/3/1950,1/11/2007,56.4,98,  N
63175,BRADWARDINE                              ,-33.4,149.6,1/2/1907,1/12/1945,38.9,100,  N
74015,BRAE SPRINGS                             ,-35.9,146.9,NA,1/5/1943,50.8,100,  N
55242,BRAEFIELD (HUNDAY)                       ,-31.5167,150.6333,1/3/1965,1/12/1989,24.4,98,  N
58094,BRAEMAR                                  ,-29.1,153.0667,1/1/1901,1/1/1920,19.1,100,  N
54009,BRAESIDE                                 ,-29.75,150.7,1/9/1944,1/12/1951,7.3,99,  N
70121,BRAIDWOOD (BANOON)                       ,-35.2833,149.7,1/3/1961,1/1/1972,10.4,95,  N
69125,BRAIDWOOD (BEDERVALE)                    ,-35.4667,149.8167,NA,1/1/1900,13.7,100,  N
69119,BRAIDWOOD (BOMBAY)                       ,-35.4463,149.6636,1/9/1977,1/5/1993,15.8,100,  N
70219,BRAIDWOOD (KHAN YUNIS)                   ,-35.8627,149.6395,1/1/1966,1/11/2020,48.4,88,  N
70057,BRAIDWOOD (KRAWARREE)                    ,-35.8238,149.6331,NA,1/3/2022,123.3,99,  N
69150,BRAIDWOOD (MONGARLOWE (LEWESTON))        ,-35.3787,150.0034,1/10/2004,1/3/2022,17.2,98,  N
69010,BRAIDWOOD (WALLACE STREET)               ,-35.4489,149.799,NA,1/2/2022,134.3,100,  N
69071,BRAIDWOOD 1                              ,-35.4667,149.8167,NA,1/12/1901,25,100,  N
69132,BRAIDWOOD RACECOURSE AWS                 ,-35.4253,149.7835,1/8/1985,1/3/2022,30.8,84,  Y
56179,BRAMBLE BERRY                            ,-30.3667,150.9833,1/1/1965,1/1/1969,4.1,100,  N
61014,BRANXTON  (DALWOOD VINEYARD)             ,-32.6385,151.4173,NA,1/3/2022,159.3,100,  N
61167,BRANXTON (LAMBS VALLEY)                  ,-32.55,151.4833,1/11/1960,1/2/1977,11.6,71,  N
52005,BRANXTON 2                               ,-29.75,148.8,NA,1/12/1951,52.8,100,  N
61005,BRANXTON POST OFFICE                     ,-32.65,151.35,NA,1/2/1969,82.4,100,  N
61271,BRANXTON STATION STREET                  ,-32.6667,151.35,1/3/1969,1/10/1978,9.7,100,  N
58005,BRAYS CREEK (MISTY MOUNTAIN)             ,-28.3981,153.1731,1/11/1950,1/3/2022,70.6,99,  N
70143,BRAYTON (LONGREACH)                      ,-34.6389,149.9541,1/8/1959,1/2/2022,62.3,99,  N
70097,BREADALBANE (OLD POST OFFICE)            ,-34.7916,149.4923,NA,1/12/2020,84.7,69,  N
70007,BREADALBANE (SWEETWOOD LEA)              ,-34.7667,149.4667,1/11/1902,1/10/1974,71.8,100,  N
70098,BREDBO (BREDBO STATION)                  ,-35.9702,149.1644,1/2/1904,1/8/2019,78.7,68,  N
55275,BREEZA (ALPHA)                           ,-31.2874,150.5394,1/4/1968,1/12/2021,53.8,100,  N
55008,BREEZA (MAIN STREET)                     ,-31.2475,150.4632,NA,1/12/2014,116.3,88,  N
55065,BREEZA (THE PARK)                        ,-31.166,150.5441,1/7/1914,1/2/2022,107.3,100,  N
60053,BRETTI (VINEGAR HILL)                    ,-31.7966,151.9062,1/9/1961,1/1/2010,47.4,98,  N
60137,BRETTI-MACKAY (BARNARD RIVER)            ,-31.7683,151.8889,1/12/2000,1/3/2022,21.2,99,  N
48173,BREWARRINA (BULABULAH)                   ,-30.0333,147.2667,1/11/1966,1/12/1974,8.2,100,  N
48180,BREWARRINA (CORELLA EAST)                ,-29.5833,146.4167,1/9/1968,1/11/1973,5,95,  N
48098,BREWARRINA (ELLERSLIE)                   ,-29.1333,146.4167,1/11/1964,1/12/1969,5.2,100,  N
48238,BREWARRINA (EUMARRA)                     ,-30.1749,146.9724,1/9/1993,1/2/2022,28.3,99,  N
48109,BREWARRINA (NOOROOMA)                    ,-29.285,146.645,1/2/1929,1/12/1987,12.3,21,  N
48072,BREWARRINA (TALAWANTA)                   ,-29.5213,146.9487,NA,1/12/2012,127.5,97,  N
48177,BREWARRINA (YAMBACOONA)                  ,-29.9667,146.6,1/11/1966,1/7/1967,0.8,100,  N
48176,BREWARRINA (YAPPALEE)                    ,-29.9744,147.0493,1/11/1966,1/3/2021,54.3,100,  N
48000,BREWARRINA ABORIGINAL STATION            ,-30,147,1/3/1907,1/7/1954,38.6,81,  N
48015,BREWARRINA HOSPITAL                      ,-29.9614,146.8651,NA,1/3/2022,147.7,98,  N
51058,BREWON                                   ,-30.2,147.5,NA,1/4/1953,70.3,100,  N
63217,BREWONGLE                                ,-33.5833,149.7,NA,1/12/1933,39.1,83,  N
68094,BRIDGEWATER                              ,-34.6,150.2167,1/8/1959,1/5/1967,7.3,94,  N
71073,BRINDABELLA (KOOLAMI)                    ,-35.3884,148.7475,1/11/1981,1/3/2022,37.8,94,  N
72157,BRINDABELLA (KOORABRI)                   ,-35.4667,148.7167,1/11/1981,1/6/1985,3.7,100,  N
70185,BRINDABELLA MOUNTAINS                    ,-35.4,148.8,1/2/1929,1/2/1949,17.2,85,  N
70184,BRINDABELLA STATION                      ,-35.4,148.7,1/6/1905,1/5/1950,24.4,54,  N
61128,BRINDLEY PARK                            ,-32.1,150.35,NA,###############################################################################################################################################################################################################################################################,13.7,86,  N
61006,BRINDLEY PARK 2                          ,-32.1,150.3,NA,1/1/1960,69.7,93,  N
67015,BRINGELLY (MARYLAND)                     ,-33.9696,150.725,NA,1/3/2022,150.3,97,  N
62038,BRIXTON                                  ,-32.5,150.4,1/4/1906,1/2/1929,22.9,100,  N
69070,BROADWATER FORESTRY                      ,-37,149.95,1/1/1940,1/9/1946,6.8,100,  N
58065,BROADWATER SUGAR MILL                    ,-29.0167,153.4333,1/4/1915,1/8/1975,60.3,100,  N
62001,BROGANS CREEK CEMENT QUARRY              ,-33,149.9667,1/10/1950,1/6/1977,23.7,88,  N
68137,BROGERS CREEK UPPER (COOKVILLE)          ,-34.7,150.6833,NA,1/6/1930,39.9,99,  N
69114,BROGO (BLANCHARDS ROAD)                  ,-36.5406,149.8227,1/6/1974,1/3/2022,42.9,90,  N
69065,BROGO (HAWKS HEAD ROAD)                  ,-36.5675,149.7509,1/5/1962,1/2/2022,56.7,95,  N
69104,BROGO (STOCKRIDGE)                       ,-36.5167,149.7333,1/7/1970,1/11/1978,8.3,99,  N
69140,BROGO DAM                                ,-36.4948,149.7434,1/3/1992,1/2/2022,30,100,  N
61100,BROKE (HARROWBY)                         ,-32.7667,151.0872,NA,1/3/2022,125.2,92,  N
61181,BROKE (OAKLEY)                           ,-32.75,151.1667,1/4/1959,1/6/1974,14.7,96,  N
61188,BROKE (SENTRY BOX)                       ,-32.7092,151.0622,1/6/1959,1/2/1996,36.7,100,  N
61197,BROKE (VERE)                             ,-32.6833,151.1333,1/4/1959,1/2/1986,26.4,98,  N
66146,BROKEN BAY NATL FITNESS CAMP             ,-33.5667,151.2667,1/2/1969,1/11/1975,2.6,38,  N
46015,BROKEN HILL  (LANGAWIRRA)                ,-31.4459,142.1352,NA,1/2/2022,131.7,97,  N
47061,BROKEN HILL (ASCOT VALE)                 ,-32.2833,141.4,1/8/1901,1/4/1991,30.6,34,  N
47062,BROKEN HILL (BUCKALOW)                   ,-32.6569,141.2376,NA,1/12/2012,85,65,  N
46134,BROKEN HILL (GLEN IDOL STATION)          ,-31.8173,141.9324,1/1/1988,1/1/2014,25.5,98,  N
47010,BROKEN HILL (GLEN LYON)                  ,-31.8833,142.5,NA,1/3/1978,91.3,97,  N
47014,BROKEN HILL (KARS)                       ,-32.2214,142.0305,NA,1/12/2011,121,100,  N
46013,BROKEN HILL (KOONAWARRA)                 ,-30.9719,142.3229,1/8/1938,1/12/2021,74.8,90,  N
46107,BROKEN HILL (KORALTA)                    ,-31.6201,142.2913,1/1/1979,1/12/2016,34.2,90,  N
47056,BROKEN HILL (LANGWELL)                   ,-32.419,141.5525,1/5/2001,1/3/2022,19.5,93,  N
46016,BROKEN HILL (LINTISS VALE)               ,-31.5,141.95,1/6/1937,1/12/1976,34.8,88,  N
46027,BROKEN HILL (NUNTHERUNGIE)               ,-30.8,142.4833,NA,1/4/1975,89.7,94,  N
47007,BROKEN HILL (PATTON STREET)              ,-31.9759,141.4676,NA,1/12/2015,120.4,95,  N
46050,BROKEN HILL (PINE VIEW)                  ,-30.6964,141.0732,1/7/1999,1/11/2010,11.3,99,  N
47104,BROKEN HILL (SOUTH ITA)                  ,-32.804,141.5096,1/9/1993,1/2/2022,28.5,100,  N
47031,BROKEN HILL (STEPHENS CREEK RESERVOIR)   ,-31.8803,141.593,NA,1/12/2021,130.7,100,  N
46033,BROKEN HILL (STURTS MEADOWS)             ,-31.2972,141.7103,NA,1/12/2014,99.7,83,  N
47070,BROKEN HILL (SUNNY DALE)                 ,-32.3333,141.45,1/11/1911,1/12/1926,15.2,100,  N
47049,BROKEN HILL (THACKARINGA)                ,-32.0682,141.1097,1/5/2001,1/1/2022,20.6,99,  N
47037,BROKEN HILL (TOPAR)                      ,-31.8905,141.9896,NA,1/12/2007,110.8,100,  N
46117,BROKEN HILL (WATERBAG)                   ,-31.4843,142.3315,1/9/1946,1/1/2021,74.3,100,  N
47048,BROKEN HILL AIRPORT AWS                  ,-32.0012,141.4694,1/9/1947,1/3/2022,62.8,84,  Y
47102,BROKEN HILL RFDS                         ,-31.9333,141.5333,1/11/1979,1/11/1985,6.1,100,  N
52037,BRONTE 2                                 ,-29.7,149,NA,1/7/1929,31.6,100,  N
66179,BRONTE SURF CLUB                         ,-33.9034,151.2675,1/1/1918,1/2/2009,12.3,13,  N
72009,BROOKFIELD FOREST STATION                ,-35.8,147.9333,1/4/1938,1/7/1968,30.3,100,  N
59003,BROOKLANA                                ,-30.2667,152.8667,1/7/1908,1/7/1967,55.8,94,  N
59004,BROOKLANA (BOBO NURSERY)                 ,-30.25,152.85,1/1/1937,1/3/1965,27.8,98,  N
66008,BROOKLYN (SANDBROOK INLET)               ,-33.5479,151.2079,1/6/1913,1/7/2011,57.9,59,  N
66155,BROOKLYN (WOBBY BEACH)                   ,-33.55,151.25,1/7/1970,1/12/1975,5.5,100,  N
74140,BROOKONG                                 ,-35.25,146.75,NA,1/9/1925,29.8,100,  N
69121,BROOMAN (CARISBROOK)                     ,-35.4411,150.2857,1/8/1979,1/2/2022,38.4,90,  N
69113,BROOMAN (GEJU)                           ,-35.4667,150.25,1/3/1974,1/8/1974,0.5,100,  N
68138,BROUGHTON VILLAGE                        ,-34.3,150.7,1/1/1909,1/7/1926,17.6,100,  N
65076,BROULA                                   ,-33.8833,148.5333,NA,1/7/1928,27.8,63,  N
55009,BROWN RIDGE                              ,-31.6,150.4,1/1/1924,1/2/1958,34.2,100,  N
68139,BROWNS MOUNTAIN                          ,-34.8,150.5167,1/4/1903,1/12/1915,11.4,89,  N
70307,BRUCE (AUSTRALIAN INSTITUTE OF SPORT)    ,-35.2459,149.1067,1/2/1981,1/3/2022,39.9,97,  N
73121,BRUNDAH                                  ,-34,148.3333,NA,1/12/1919,34,97,  N
73104,BRUNGLE                                  ,-35.15,148.2333,1/6/1909,1/10/1924,14.8,96,  N
73115,BRUNGLE (BONNIE DOON)                    ,-35.164,148.2288,1/11/1960,1/3/2022,59.8,97,  N
73034,BRUNGLE (ROSEMOUNT)                      ,-35.2,148.3,NA,1/2/1960,70.2,99,  N
61424,BRUNKERVILLE (SUNRISE)                   ,-32.9464,151.4722,1/1/2004,1/12/2021,18,100,  N
58103,BRUNSWICK HEADS BOWLING CLUB             ,-28.5513,153.5475,1/6/1964,1/10/2016,51,97,  N
61137,BRUSH CREEK (BEBEAH)                     ,-33.15,151.2667,1/4/1959,1/5/1970,11.2,100,  N
58006,BRUSHGROVE (CLARENCE ST)                 ,-29.5663,153.0812,NA,1/3/2022,122.5,97,  N
59005,BUCCA LOWER FORESTRY                     ,-30.15,153.1,1/1/1939,1/3/1957,17.4,95,  N
57069,BUCCARUMBI HOMESTEAD                     ,-29.8333,152.5833,1/12/1964,1/11/1974,8.8,88,  N
61101,BUCHANAN                                 ,-32.8167,151.5167,NA,1/3/1921,23.8,100,  N
63099,BUCKEMALL CREEK                          ,-33.8167,149.9333,1/8/1954,1/4/1970,15.7,99,  N
71026,BUCKENDERRA HOLIDAY VILLAGE              ,-36.1823,148.7644,1/5/2003,1/2/2016,10.3,80,  N
74018,BUCKINGBONG FORESTRY                     ,-34.95,146.5,1/1/1940,1/12/1963,24,100,  N
52044,BUDDAH GROVE                             ,-29.7333,148.55,NA,1/2/1915,18.7,84,  N
62059,BUDDEN                                   ,-32.4,150.1,1/10/1918,1/6/1931,8.6,67,  N
74141,BUDDIGOWER (HILL VIEW)                   ,-34,147,1/1/1909,1/1/1925,16.1,100,  N
74019,BUDDIGOWER POST OFFICE                   ,-34,147,1/3/1946,1/7/1966,20.4,100,  N
62084,BUDGEE BUDGEE (BOTOBOLAR VINEYARD)       ,-32.5007,149.7134,1/5/1971,1/6/2018,47.2,100,  N
51137,BUDGERY                                  ,-31.5333,146.6167,NA,1/4/1921,35.9,96,  N
68111,BUDGONG                                  ,-34.7667,150.4833,1/11/1962,1/1/1971,7.4,90,  N
62002,BUDULLU (NULLO MOUNTAIN)                 ,-31.7333,150.0167,1/1/1903,1/12/1949,28.9,61,  N
53043,BUGALDIE (ULUNDI)                        ,-31.0667,149.025,1/1/1911,1/11/1991,62.6,77,  N
52045,BUGILBONE                                ,-30.2667,148.8333,NA,1/12/1913,19.9,93,  N
70009,BUKALONG STATION                         ,-36.7969,149.1972,NA,1/11/2021,163.9,100,  N
54060,BUKKULLA                                 ,-29.5,151.1333,1/1/1912,1/1/1971,17.3,29,  N
54159,BUKKULLA (ASHFORD ROAD)                  ,-29.5005,151.128,1/1/1987,1/11/2013,26.3,97,  N
54061,BUKKULLA (GLENORCHY)                     ,-29.5,151.2,1/1/1958,1/9/1966,8.8,100,  N
54052,BUKKULLA (RALEIGH)                       ,-29.4667,151.05,1/1/1958,1/12/1975,17.8,99,  N
54121,BUKKULLA (RFS)                           ,-29.5045,151.1293,1/9/2013,1/3/2022,8.6,100,  N
54059,BUKKULLA (THE RANCH)                     ,-29.4667,151.0833,1/8/1958,1/12/1970,12,97,  N
63126,BULA PARK                                ,-33.65,148.6667,1/4/1962,1/4/1972,10.1,100,  N
60002,BULAHDELAH POST OFFICE                   ,-32.4129,152.2079,1/11/1905,1/3/2022,116.3,100,  N
50099,BULBODNEY WOODLANDS WHEAT ASSO           ,-32.5,147.1667,1/1/1916,1/12/1924,8.8,97,  N
60003,BULBY BRUSH (BLUE LOOK-OUT)              ,-32.1189,152.208,1/2/1925,1/8/2005,66.8,83,  N
61150,BULGA (CHARLTON)                         ,-32.6333,151.0667,1/8/1959,1/6/1973,11,79,  N
61143,BULGA (DOWN TOWN)                        ,-32.654,151.021,1/6/1960,1/3/2022,56.8,92,  N
61252,BULGA (REEDY CREEK)                      ,-32.65,151,1/1/1968,1/12/1974,4.8,69,  N
61191,BULGA (SOUTH WAMBO)                      ,-32.6126,150.9761,1/8/1959,1/3/2022,62.7,100,  N
61293,BULGA POLICE STATION                     ,-32.6667,151.0167,1/10/1968,1/4/1975,4.3,65,  N
74142,BULGANDRA                                ,-35.3,146.3,NA,1/7/1924,35.6,95,  N
50009,BULGANDRAMINE                            ,-32.6,148.1,NA,1/4/1942,60.3,100,  N
48017,BULGOO                                   ,-31.8,145.6,NA,1/7/1954,60.8,93,  N
74143,BULL PLAIN                               ,-35.8,146.1,NA,1/5/1920,35.4,100,  N
48138,BULLA BULLA STATION                      ,-31.7,144.6,NA,1/2/1924,36.1,92,  N
48139,BULLA BULLA TANK                         ,-31.5,144.6,1/1/1911,1/9/1930,15.5,78,  N
63256,BULLABURRA (FAIRVIEW)                    ,-33.7333,150.4167,1/7/1970,1/8/1978,8.2,100,  N
54115,BULLAMA                                  ,-30.2167,150.9833,1/1/1965,1/1/1971,3.3,53,  N
52046,BULLARAH                                 ,-29.45,149.2167,1/5/1911,1/6/1925,14.2,100,  N
64006,BULLAROY                                 ,-31.7,149.5,1/9/1937,1/2/1959,20,93,  N
71002,BULLS HEAD                               ,-35.3833,148.8,1/1/1940,1/12/1953,12.8,92,  N
52047,BULYEROI                                 ,-29.7333,149.2167,1/3/1900,1/1/1915,14.8,99,  N
73100,BUMBALDRY (BUSHVIEW)                     ,-33.9119,148.4383,NA,1/2/2022,120.8,97,  N
70348,BUMBALONG (UPSTREAM RD)                  ,-35.8618,149.1321,1/3/2004,1/3/2022,18.1,100,  N
65005,BUMBERRY                                 ,-33.2,148.5,NA,1/10/1971,72.2,98,  N
52070,BUNARBA SOUTH                            ,-29.0833,149.2667,1/1/1916,1/12/1923,8,100,  N
48166,BUNDABULLA                               ,-29.55,147.2167,NA,1/1/1914,23.1,100,  N
68008,BUNDANOON (BALLYMENA)                    ,-34.6506,150.3103,1/1/1902,1/2/2022,115.7,96,  N
68114,BUNDANOON (MERYLA)                       ,-34.6667,150.3667,1/11/1962,1/7/1971,8.8,100,  N
68100,BUNDANOON (PLATTWOOD)                    ,-34.6519,150.3085,1/11/1961,1/12/2011,49.8,99,  N
54000,BUNDARRA (ARALUEN)                       ,-30.0478,150.9392,1/5/1926,1/12/2021,95.2,99,  N
56150,BUNDARRA (BASSENDEAN)                    ,-30.0667,151.1833,1/7/1902,1/12/1973,26.6,37,  N
54114,BUNDARRA (BEVERLEY)                      ,-30.0977,151.0089,1/1/1965,1/2/2022,56.9,99,  N
56182,BUNDARRA (BINDAWALLA)                    ,-30.3,151.2833,1/1/1965,1/11/1975,10,92,  N
54118,BUNDARRA (CLIFTON)                       ,-30.15,150.9167,1/1/1959,1/9/1975,16.8,100,  N
56177,BUNDARRA (FAIRFIELD)                     ,-30.3667,151.0833,1/1/1947,1/12/1967,19.2,91,  N
56168,BUNDARRA (GLEN HAZEL)                    ,-30.05,151.0667,1/1/1965,1/5/1980,14.8,96,  N
56176,BUNDARRA (GLENDALE)                      ,-30.1369,151.2581,1/1/1959,1/3/2022,62.8,99,  N
54108,BUNDARRA (GLENORA)                       ,-30.0167,150.95,1/1/1965,1/4/1969,4.3,100,  N
54105,BUNDARRA (GRANITE HEIGHTS)               ,-30.3354,150.9338,1/1/1965,1/12/2017,52.8,100,  N
56175,BUNDARRA (PRESTBURY)                     ,-30.2,151.1833,1/1/1965,1/11/1965,0.9,100,  N
54113,BUNDARRA (ROSS)                          ,-30.1432,150.9639,1/1/1965,1/5/2013,45.8,95,  N
56180,BUNDARRA (SOUTH WINSCOMBE)               ,-30.2979,151.0772,1/1/1965,1/12/2021,57,100,  N
56178,BUNDARRA (THE CEDARS)                    ,-30.2833,151.0167,1/1/1965,1/3/1973,6.9,84,  N
54006,BUNDARRA (VALLEY VIEW)                   ,-30.2667,150.9167,1/1/1922,1/3/1971,46.9,95,  N
56214,BUNDARRA (WILLOWBANK)                    ,-30.3123,150.9964,1/1/1969,1/12/2017,48.8,99,  N
54107,BUNDARRA (WONGABURRA)                    ,-30.0897,150.9153,1/1/1965,1/11/1997,31.8,97,  N
56006,BUNDARRA POST OFFICE                     ,-30.1711,151.0757,NA,1/1/2020,131.5,96,  N
66116,BUNDEENA COMPOSITE                       ,-34.0833,151.15,1/5/1964,1/4/1978,13.9,99,  N
55207,BUNDELLA                                 ,-31.5333,149.9833,1/3/1904,1/9/1914,10.6,100,  N
60037,BUNDOOK (GLENHAUGH)                      ,-31.8867,152.1117,1/1/1945,1/12/1997,51.8,98,  N
55070,BUNDULLA                                 ,-31.7333,150.0167,1/12/1952,1/6/1954,1.6,100,  N
53062,BUNDY                                    ,-29.8333,150.2167,NA,1/3/1919,16.5,75,  N
70010,BUNGARBY (MERAMBEGO)                     ,-36.7333,149,1/1/1925,1/10/1977,50.7,96,  N
58095,BUNGAWALBIN                              ,-29.0333,153.2833,NA,1/11/1925,24.7,72,  N
70030,BUNGENDORE (DOUGLAS)                     ,-35.1833,149.4,NA,1/8/1973,72.3,81,  N
70035,BUNGENDORE (GIDLEIGH)                    ,-35.3081,149.4726,NA,1/7/2016,129.9,99,  N
70354,BUNGENDORE (LOCKHART)                    ,-35.3307,149.5212,1/5/2006,1/2/2022,14,88,  N
70234,BUNGENDORE OLD KOWEN                     ,-35.2667,149.3333,1/8/1970,1/11/1976,6.3,100,  N
70011,BUNGENDORE POST OFFICE                   ,-35.2549,149.4446,NA,1/12/2019,128.8,99,  N
70294,BUNGENDORE PUBLIC SCHOOL                 ,-35.25,149.45,NA,1/5/1916,20.8,79,  N
48019,BUNGHILL TANK                            ,-29.7667,147.7833,NA,1/5/1968,77.6,96,  N
70012,BUNGONIA (INVERARY PARK)                 ,-34.8996,149.9709,NA,1/12/2021,130.3,94,  N
74236,BUNGOWANNAH (ROSELEIGH)                  ,-36.0168,146.7562,NA,1/12/2021,127.8,99,  N
74024,BUNGOWANNAH PARK                         ,-36.05,146.8,NA,1/12/1998,84.4,73,  N
60113,BUNGULLA (CRAVEN PLATEAU)                ,-31.8667,151.75,1/6/1937,1/2/1942,4.6,96,  N
60095,BUNGWAHL                                 ,-32.375,152.3808,1/3/2002,1/3/2022,20.1,100,  N
60047,BUNGWAHL (BUTTABA)                       ,-32.39,152.4,1/9/1961,1/5/1994,23.3,71,  N
52009,BUNNA BUNNA WOOLSHED                     ,-29.8,149.1,1/10/1918,1/12/1954,36.3,100,  N
74262,BUNNALOO (GLENKANA)                      ,-35.7861,144.6002,1/7/2003,1/2/2022,18.6,99,  N
61342,BUNNAN  (THE CUAN)                       ,-31.9864,150.6299,1/4/1977,1/12/2012,34.3,96,  N
61007,BUNNAN (MILHAVEN)                        ,-32.0332,150.5836,1/11/1900,1/2/2022,119.5,98,  N
55208,BURBURGATE                               ,-30.8833,150.2,NA,1/12/1920,37,100,  N
50109,BURCHER (LANA)                           ,-33.5,147.35,1/10/1968,1/4/1978,9.6,100,  N
50010,BURCHER POST OFFICE                      ,-33.5159,147.2541,1/6/1937,1/2/2022,76.3,90,  N
55068,BURINDI                                  ,-30.5,150.5,NA,1/7/1954,56.6,100,  N
48094,BURKE (MULGOWAN)                         ,-30.55,145.8167,1/1/1959,1/5/1977,18.4,100,  N
73067,BURLINGTON FLAT (NARRABURRA)             ,-34.3,147.6,NA,1/2/1932,42.6,94,  N
47108,BURNDOO                                  ,-32.0679,143.65,1/8/2017,1/3/2022,4.7,100,  Y
73068,BURNT CREEK SOUTH                        ,-34.9,147.6,1/7/1923,1/6/1932,9,100,  N
72010,BURRA  1                                 ,-35.85,148,1/1/1900,1/4/1960,54.2,90,  N
70287,BURRA (HUTCHINSON PLACE)                 ,-35.5783,149.2067,1/4/2001,1/2/2007,5.8,98,  N
70126,BURRA (URILA (MIRRIMA))                  ,-35.5567,149.2711,1/1/1993,1/7/2003,10.6,100,  N
72011,BURRA 2                                  ,-35.55,149.2167,1/5/1925,1/11/1951,26.6,100,  N
50012,BURRA BURRA                              ,-32.65,147.4,NA,1/12/1954,75.4,99,  N
75011,BURRABOGIE                               ,-34.5,145.2,NA,1/12/1968,85.4,93,  N
63014,BURRAGA                                  ,-33.9667,149.5333,1/10/1949,1/10/1968,16.3,86,  N
63262,BURRAGA (BALLYROE)                       ,-34.0367,149.6,1/4/1973,1/2/2008,24,69,  N
63091,BURRAGA (EMDEN VALE)                     ,-34.0833,149.6167,1/2/1961,1/12/1971,10.8,98,  N
63198,BURRAGA 2                                ,-34,149.5,NA,1/6/1945,42.9,81,  N
69012,BURRAGATE POST OFFICE                    ,-37.0167,149.6167,1/11/1900,1/5/1974,66.3,90,  N
63016,BURRAGORANG                              ,-34.2,150.3,1/9/1942,1/11/1962,18.3,90,  N
63015,BURRAGORANG CENTRAL                      ,-34.1,150.4,1/10/1942,1/12/1950,6.9,84,  N
62060,BURRANDONG                               ,-32.7,149.1,1/1/1911,1/11/1930,19.9,100,  N
68009,BURRAWANG (RANGE STREET)                 ,-34.5961,150.5187,NA,1/11/2016,76.9,61,  N
68243,BURRAWANG (SPURFIELD)                    ,-34.5776,150.5118,1/11/2000,1/2/2022,21.3,100,  N
50049,BURRAWANG SOUTH STATION                  ,-33.2,147.5,NA,1/5/1942,60.4,92,  N
48246,BURRAWANTIE                              ,-29.1544,145.4066,1/8/2017,1/3/2022,4.6,98,  Y
48189,BURREN BURREN                            ,-29.2167,148.65,NA,1/3/1917,22,87,  N
52001,BURREN JUNCTION (HASTINGS STREET)        ,-30.1019,148.9651,1/12/1908,1/5/2017,107.6,99,  N
52082,BURREN JUNCTION (LOCHMOHR)               ,-30.0931,148.8772,1/8/1988,1/7/1989,1,100,  N
52073,BURREN JUNCTION (MOOREFIELD)             ,-30.1667,148.8333,NA,1/4/1915,20.3,95,  N
52060,BURREN JUNCTION (PLAIN VIEW)             ,-30.1667,148.95,1/9/1966,1/11/1970,4.3,100,  N
52066,BURREN JUNCTION (WATERFORD)              ,-30.1962,148.7567,1/9/1966,1/7/2007,34.2,83,  N
62024,BURRENDONG (PINE PARK)                   ,-32.6,149.15,1/1/1915,1/9/1951,36.8,100,  N
69053,BURREWARRA NORTH                         ,-35.8167,150.2167,1/6/1962,1/12/1970,5.8,67,  N
73107,BURRINGBAR                               ,-35,148.6,1/1/1903,1/4/1916,10.8,81,  N
58107,BURRINGBAR (HARNETT)                     ,-28.45,153.4833,1/11/1965,1/1/1978,10.4,85,  N
73007,BURRINJUCK DAM                           ,-34.9997,148.5984,1/7/1908,1/3/2022,113.8,100,  N
68031,BURRUER (ILLAROO)                        ,-34.8667,150.45,1/2/1902,1/7/1963,51.7,84,  N
74025,BURRUMBUTTOCK (HOLYROOD)                 ,-35.8531,146.7764,NA,1/3/2021,131,99,  N
62004,BURRUNDULLA                              ,-32.6,149.6,NA,1/10/1951,85.8,100,  N
66113,BURWOOD 1                                ,-33.9,151.1,NA,1/12/1922,37.3,95,  N
66091,BURWOOD 2 PUBLIC SCHOOL                  ,-33.8667,151.1,1/10/1911,1/11/1923,11.2,92,  N
58207,BUSBYS FLAT                              ,-29.0374,152.8055,1/12/2000,1/3/2021,19,93,  N
68166,BUXTON (AMAROO)                          ,-34.2424,150.522,1/7/1966,1/11/2021,51.3,92,  N
68010,BUXTON (GIRRAHWEEN)                      ,-34.3,150.5,1/12/1935,1/4/1953,14.4,83,  N
55139,BYAMEE (MILROY)                          ,-31,150.7833,1/8/1958,1/10/1967,9.3,100,  N
50127,BYGALORIE (MERRIBOGIE)                   ,-33.4333,146.8333,NA,1/9/1904,11.6,98,  N
50058,BYGOLOREE 2                              ,-33.5833,146.9833,1/1/1900,1/2/1915,15.2,100,  N
74027,BYGOO                                    ,-34.3,146.9,NA,1/12/1959,76.8,100,  N
62102,BYLONG (BYLONG ROAD)                     ,-32.5204,150.0817,1/6/1991,1/2/2022,30.7,100,  N
62107,BYLONG (GLENVIEW)                        ,-32.471,150.1059,1/6/2010,1/3/2022,11.8,99,  N
62080,BYLONG (HEATHERBRAE)                     ,-32.358,150.0969,1/9/1968,1/12/2014,36.7,79,  N
62020,BYLONG (MONTORO)                         ,-32.5014,150.0333,1/7/1935,1/5/1991,50.1,90,  N
62048,BYLONG (POGGY)                           ,-32.2833,150.0833,1/10/1960,1/4/1977,15.7,94,  N
48220,BYROCK (BURRAWA)                         ,-30.7167,145.7333,1/10/1935,1/12/1939,4,94,  N
48249,BYROCK (KNIGHTVALE)                      ,-30.4864,146.3283,1/8/2017,1/3/2022,4.7,100,  Y
48209,BYROCK (MULGA TANK)                      ,-30.5167,146.6333,NA,1/7/1902,11.4,99,  N
48175,BYROCK (MULLAGALAH)                      ,-30.5,146.2,1/11/1966,1/3/1969,2.3,97,  N
48219,BYROCK (WAVE HILL)                       ,-30.4667,146.5,1/9/1939,1/4/1973,33.7,100,  N
48174,BYROCK (WYUNA DOWNS)                     ,-30.5667,146.55,1/11/1966,1/12/1971,5.2,100,  N
48021,BYROCK POST OFFICE                       ,-30.6604,146.4064,NA,1/10/2007,111.7,95,  N
58216,BYRON BAY (CAPE BYRON AWS)               ,-28.6399,153.6358,1/11/2002,1/3/2022,19.4,100,  Y
58009,BYRON BAY (CAPE BYRON LIGHTHOUSE)        ,-28.6388,153.6361,1/10/1950,1/8/2012,61.8,100,  N
58007,BYRON BAY (JACARANDA DRIVE)              ,-28.6356,153.5883,NA,1/3/2022,127.2,98,  N
70196,BYWONG                                   ,-35.1333,149.3,NA,1/12/1906,8.3,100,  N
60096,CABBAGE TREE MOUNTAIN                    ,-32.2583,152.1208,1/3/2002,1/3/2022,20.1,100,  N
67091,CABRAMATTA                               ,-33.9,150.9167,1/3/1945,1/8/1967,22.5,100,  N
72091,CABRAMURRA SMHEA                         ,-35.9383,148.3842,1/6/1955,1/4/1999,43.9,100,  N
72161,CABRAMURRA SMHEA AWS                     ,-35.9371,148.3779,1/12/1996,1/3/2022,25.3,100,  Y
69044,CADGEE (WATTLEGROVE)                     ,-36.2,149.9,1/8/1961,1/11/1962,1.3,100,  N
63189,CADIA                                    ,-33.4,149,NA,1/10/1928,44.2,96,  N
63006,CADIA COMPOSITE                          ,-33.5,149,1/4/1926,1/12/1968,39.3,92,  N
47079,CAL LAL (KULCURNA)                       ,-34.0452,141.0661,NA,1/11/2008,32.8,29,  N
55159,CALALA (LYINKA)                          ,-31.1333,150.95,1/8/1958,1/8/1993,8.8,25,  N
51070,CALGA                                    ,-31.1,148.7,NA,1/12/1921,47.8,100,  N
68251,CALLALA BAY (DONOVAN CLOSE)              ,-34.9914,150.7239,1/6/1997,1/9/2014,17.2,99,  N
68245,CALLALA TREATMENT PLANT                  ,-34.9528,150.702,1/1/2001,1/2/2022,21.2,100,  N
58008,CALLIOPE PUBLIC SCHOOL                   ,-29.6167,153.0667,1/2/1911,1/12/1977,66,99,  N
74178,CALWELL (THULE)                          ,-35.6833,144.35,1/4/1913,1/4/1948,33.4,95,  N
68118,CAMBEWARRA (TAPI TALLIE)                 ,-34.8333,150.5333,1/11/1962,1/5/1978,15.1,97,  N
68007,CAMDEN (BROWNLOW HILL)                   ,-34.0254,150.6455,NA,1/3/2022,139.9,100,  N
68225,CAMDEN (CAMTRAC)                         ,-34.04,150.6983,1/9/1986,1/6/2000,13.6,98,  N
68192,CAMDEN AIRPORT AWS                       ,-34.039,150.689,1/1/1943,1/3/2022,48.4,61,  Y
68011,CAMDEN BOWLING CLUB                      ,-34.05,150.7167,NA,1/1/1977,92.8,99,  N
68012,CAMDEN MWSDB                             ,-34.05,150.7,1/10/1946,1/10/1970,24.1,100,  N
68250,CAMDEN VALLEY (GOLF RESORT)              ,-34.0161,150.7673,1/2/2007,1/2/2012,5,98,  N
70257,CAMPBELL                                 ,-35.2833,149.15,1/7/1971,1/1/1991,19.6,100,  N
61008,CAMPBELLS HILL                           ,-32.7,151.5,1/2/1912,1/11/1965,51.6,96,  N
68160,CAMPBELLTOWN (KENTLYN (GEORGES RIVER ROA ,-34.0542,150.8772,1/6/1966,1/3/2022,42.1,75,  N
68257,CAMPBELLTOWN (MOUNT ANNAN)               ,-34.0615,150.7735,1/11/2006,1/3/2022,15.4,100,  Y
68014,CAMPBELLTOWN 1                           ,-34.0667,150.8,NA,1/5/1961,80.1,69,  N
68015,CAMPBELLTOWN 2 MWSDB                     ,-34.0667,150.8167,1/11/1946,1/10/1970,23.8,99,  N
68081,CAMPBELLTOWN SWIMMING CENTRE             ,-34.0833,150.8167,1/10/1959,1/12/1984,25.2,100,  N
68230,CAMPBELLTOWN U.W.S.                      ,-34.0697,150.7878,1/3/1992,1/6/1994,1.1,46,  N
62066,CANADIAN LEAD                            ,-32.45,149.5167,1/7/1901,1/2/1935,33.7,100,  N
49070,CANALLY                                  ,-34.7,143.55,1/1/1902,1/12/1920,17.9,94,  N
48024,CANBELEGO POST OFFICE                    ,-31.5567,146.3217,1/5/1911,1/2/1987,75.5,99,  N
48023,CANBELEGO THE HERMITAGE                  ,-31.6,146.3667,1/11/1905,1/3/1974,68.2,100,  N
70099,CANBERRA (ACTON)                         ,-35.3,149.1,1/1/1912,1/11/1939,26.2,94,  N
70247,CANBERRA (AUSTRALIAN NATIONAL BOTANIC GA ,-35.2776,149.1095,1/1/1968,1/3/2022,54.3,100,  N
70103,CANBERRA (DUNTROON MILITARY COLLEGE)     ,-35.3,149.1,NA,1/3/1941,41.2,91,  N
70338,CANBERRA AERO COMPARISON                 ,-35.3083,149.1936,1/1/1996,1/12/1997,2,100,  N
70351,CANBERRA AIRPORT                         ,-35.3088,149.2004,1/9/2008,1/3/2022,13.6,100,  Y
70014,CANBERRA AIRPORT COMPARISON              ,-35.3049,149.2014,1/3/1939,1/12/2010,71.8,100,  Y
70282,CANBERRA CITY                            ,-35.2667,149.1167,1/12/1974,1/12/1988,14.1,100,  N
70015,CANBERRA FORESTRY                        ,-35.3,149.1,1/6/1927,1/10/1981,53.8,99,  N
70246,CANBERRA PARLIAMENT HOUSE                ,-35.3099,149.1267,1/1/1968,1/3/2022,50.7,93,  N
70100,CANBERRA SOLAR OBSERVATORY               ,-35.3,149,1/5/1912,1/2/1940,18.7,67,  N
69069,CANDELO (KANOONA (TILLSIDE))             ,-36.762,149.7714,1/1/2002,1/3/2014,12.3,100,  N
69013,CANDELO POST OFFICE                      ,-36.7677,149.6951,NA,1/2/2022,134.8,100,  N
57090,CANGAI (HANGING ROCK)                    ,-29.4667,152.4833,1/11/1969,1/7/1975,5.7,99,  N
57093,CANGAI (SMELTER CREEK)                   ,-29.5101,152.4897,1/5/1905,1/2/2022,63.3,54,  N
70228,CANIA (PRETORIA-COOMA)                   ,-36.3833,149.2167,1/6/1920,1/2/1926,5.8,100,  N
67088,CANLEY VALE                              ,-33.8833,150.9333,NA,1/11/1922,24.4,67,  N
51071,CANNONBAR                                ,-31.6,147.3,NA,1/12/1924,36.3,81,  N
67023,CANOELANDS (CANOELANDS)                  ,-33.4972,151.0931,1/1/2003,1/2/2022,18.8,98,  N
65080,CANOMODINE                               ,-33.5,148.7,NA,1/3/1923,28.3,100,  N
75013,CANOON                                   ,-34.5,144.5,NA,1/3/1954,68.3,100,  N
65046,CANOWINDRA (BANGAROO)                    ,-33.6167,148.6167,1/1/1902,1/6/1920,12.6,68,  N
65108,CANOWINDRA (BURDETT (BROADVIEW))         ,-33.4236,148.6103,1/1/1995,1/12/2013,18.8,99,  N
65006,CANOWINDRA (CANOWINDRA STREET)           ,-33.572,148.6619,NA,1/12/2016,130.6,100,  N
63167,CANOWINDRA (RIVERSIDE)                   ,-33.5331,148.7527,1/1/1971,1/4/2018,44.3,93,  N
66150,CANTERBURY HEIGHTS                       ,-33.9,151.1167,1/9/1906,1/12/1916,10,97,  N
66194,CANTERBURY RACECOURSE AWS                ,-33.9057,151.1134,1/10/1995,1/3/2022,26.4,100,  Y
68096,CANYONLEIGH (GLENCOE)                    ,-34.6,150.1167,1/3/1945,1/10/1980,21,59,  N
68095,CANYONLEIGH (MEGALONG)                   ,-34.55,150.15,1/8/1959,1/10/1972,12.1,91,  N
68140,CAPE ST GEORGE                           ,-35.1667,150.7667,NA,###############################################################################################################################################################################################################################################################,32.5,100,  N
63241,CAPERTEE (BERNINA)                       ,-33.13,149.9789,1/9/1968,1/5/1997,28.1,98,  N
63168,CAPERTEE (LOCHABER)                      ,-33.15,149.9833,1/7/1962,1/1/1981,18.6,100,  N
63179,CAPERTEE (THE MEADOWS)                   ,-33.18,150.1506,1/11/1962,1/12/1995,32,96,  N
63191,CAPERTEE POST OFFICE                     ,-33.15,149.9833,NA,1/5/1923,27.7,100,  N
70324,CAPTAINS FLAT (BALLINAFADO PLANTATION)   ,-35.634,149.4184,1/11/2008,1/2/2011,2.3,100,  N
70016,CAPTAINS FLAT (FOXLOW ST)                ,-35.5889,149.4478,NA,1/3/2022,99.2,80,  N
72012,CARABOST                                 ,-35.6043,147.7263,NA,1/3/2022,99.1,73,  N
72017,CARABOST (YALLOWIN)                      ,-35.5595,147.7309,1/8/1999,1/1/2020,19.4,95,  N
72013,CARABOST FOREST HEADQUARTERS             ,-35.65,147.8022,1/7/1938,1/5/1997,55,93,  N
72014,CARABOST STATE FOREST 2                  ,-35.65,147.7167,1/7/1938,1/9/1979,40.8,99,  N
73008,CARAGABAL POST OFFICE                    ,-33.8442,147.7408,1/1/1916,1/7/2013,82.1,84,  N
63019,CARCOAR                                  ,-33.6167,149.1333,NA,1/12/1970,88.8,99,  N
63208,CARCOAR (COMBING PARK)                   ,-33.7,149.1833,1/1/1900,1/7/1908,7.6,88,  N
63259,CARCOAR (ERROWANBANG)                    ,-33.55,149.05,1/1/1900,1/12/1972,62.3,85,  N
63216,CARCOAR (ICELY STREET)                   ,-33.6167,149.1333,1/11/1969,1/12/1975,5.9,96,  N
61413,CAREYS PEAK (BARRINGTON TOPS)            ,-32.0544,151.4706,1/5/2009,1/3/2022,12.3,95,  N
65004,CARGO (COOLAMATONG)                      ,-33.3596,148.9193,1/2/1999,1/10/2014,15.3,97,  N
65033,CARGO (MORELLA)                          ,-33.3832,148.8449,1/9/2000,1/2/2012,11.5,100,  N
65007,CARGO POST OFFICE                        ,-33.4167,148.8167,NA,1/3/1987,87.9,90,  N
51055,CARINA (WILGA PARK)                      ,-30.3833,147.9667,1/1/1928,1/1/1969,41,100,  N
51000,CARINDA (ALLAWAH)                        ,-30.7,147.4167,1/6/1940,1/12/1973,33.4,99,  N
48009,CARINDA (BOOROOMA)                       ,-30.1047,147.4647,NA,1/2/1995,106.5,93,  N
51125,CARINDA (YANDA)                          ,-30.4167,147.55,1/9/1968,1/3/1979,10.4,98,  N
51007,CARINDA POST OFFICE                      ,-30.4631,147.6915,NA,1/2/2012,105.3,93,  N
66136,CARINGBAH (LILLI PILLI)                  ,-34.0667,151.1167,1/2/1968,1/4/1973,5.1,97,  N
66185,CARLINGFORD (BARELLAN AV)                ,-33.7801,151.0587,1/1/1986,1/9/2011,25.8,100,  N
66132,CARLTON                                  ,-33.9667,151.1333,1/2/1907,1/11/1924,17.8,100,  N
63147,CARLWOOD (KANBARA)                       ,-33.6167,149.85,1/8/1959,1/12/1979,15.4,75,  N
61144,CARLYLE                                  ,-31.9667,150.65,1/12/1960,1/12/1969,6.5,72,  N
57066,CARNHAM                                  ,-29.3466,152.5167,1/12/1964,1/1/2010,45.1,100,  N
54136,CARODA                                   ,-30.0333,150.3833,1/3/1974,1/12/1974,0.8,90,  N
54084,CARODA (PALAROO HILL)                    ,-30.1094,150.1381,1/2/2009,1/1/2010,1,100,  N
54153,CARODA (PALEROO)                         ,-30.1186,150.13,1/1/1954,1/1/2019,58.9,90,  N
54125,CARODA (ROSEBERRY PARK)                  ,-30.1312,150.1462,1/1/1967,1/1/2022,54.9,100,  N
53089,CARODA (THE GROVE)                       ,-29.8667,150.25,1/1/1965,1/4/1967,2.2,93,  N
54010,CARODA POST OFFICE                       ,-30.0333,150.3667,1/10/1911,1/1/1976,39.1,61,  N
58153,CAROOL (STITZS)                          ,-28.2333,153.4333,1/6/1971,1/10/1972,1.4,100,  N
55036,CAROONA (WEST MOOKI)                     ,-31.4135,150.4234,1/8/1925,1/11/2007,75.9,92,  N
61145,CARRABOLLA                               ,-32.2,151.4,1/6/1960,1/7/1964,4.2,100,  N
61241,CARRABOLLA  (WOODBURY)                   ,-32.2421,151.3808,1/8/1965,1/7/2011,45.7,99,  N
75029,CARRATHOOL (GUM CREEK)                   ,-34.628,145.3539,NA,1/12/2015,122.7,91,  N
75067,CARRATHOOL (UARDRY)                      ,-34.4661,145.3026,NA,1/12/2011,129,100,  N
75014,CARRATHOOL MOTORS                        ,-34.4081,145.433,NA,1/12/2006,114,97,  N
55055,CARROLL (THE RANCH)                      ,-30.9604,150.4601,NA,1/8/2008,113.8,97,  N
55117,CARROLL GAP (KURRAWONG)                  ,-30.95,150.55,1/8/1958,1/7/1975,13.1,77,  N
56005,CARROLLS CREEK (BOONOO BOONOO)           ,-28.85,152.1,1/1/1920,1/10/1954,30.1,86,  N
61146,CARROW BROOK                             ,-32.2722,151.3052,1/11/1960,1/2/2022,59.7,97,  N
58063,CASINO AIRPORT                           ,-28.8752,153.049,NA,1/7/2012,138.6,90,  N
58208,CASINO AIRPORT AWS                       ,-28.8824,153.0618,1/1/1995,1/3/2022,27.3,100,  Y
62009,CASSILIS (DALKEITH)                      ,-31.9963,149.9856,NA,1/3/2022,142.5,96,  N
62044,CASSILIS (MANDERLAY)                     ,-31.8167,150.05,1/7/1960,1/12/1972,12.5,100,  N
62076,CASSILIS (TALBRAGAR)                     ,-31.8833,149.85,1/3/1968,1/2/1982,14,100,  N
62108,CASSILIS (THISTLEDALE)                   ,-32.0348,150.0191,1/6/2010,1/3/2022,11.7,99,  N
62091,CASSILIS (TUREE VALE)                    ,-31.9333,149.8,NA,1/12/1913,26.3,95,  N
62051,CASSILIS (YARRAWONGA)                    ,-31.9,149.9333,1/11/1960,1/2/1977,14.9,91,  N
62005,CASSILIS POST OFFICE                     ,-32.0051,149.9815,NA,1/10/2015,135.2,93,  N
58010,CASTILLE                                 ,-28.45,152.6,1/4/1933,1/9/1989,35.2,62,  N
66080,CASTLE COVE (ROSEBRIDGE AVE)             ,-33.7809,151.2044,1/10/1958,1/3/2022,63.5,100,  N
67100,CASTLE HILL (KATHLEEN AVE)               ,-33.7248,150.992,1/6/1985,1/7/2021,35.2,97,  N
67053,CASTLE HILL 1                            ,-33.7,151,1/1/1916,1/12/1936,21,100,  N
67001,CASTLE HILL 2                            ,-33.7,151,1/1/1926,1/9/1956,30.8,100,  N
55010,CASTLE MOUNTAIN                          ,-31.5,150.7,NA,1/11/1953,53.9,88,  N
67002,CASTLEREAGH (CASTLEREAGH ROAD)           ,-33.6667,150.6696,1/9/1939,1/3/2022,71.8,87,  N
68016,CATARACT DAM                             ,-34.2644,150.8062,1/1/1904,1/1/2013,105.1,96,  N
68148,CATARACT RESERVOIR (LETTERBOX)           ,-34.2667,150.8833,1/7/1907,1/1/1960,39.3,75,  N
68017,CATARACT RIVER                           ,-34.2333,150.75,NA,1/10/1966,83.6,100,  N
69152,CATHCART (MOUNT DARRAGH)                 ,-36.8403,149.5214,1/11/2006,1/3/2022,15.1,98,  N
69019,CATHCART (MOUNT DARRAGH)                 ,-36.8402,149.5257,1/1/1924,1/2/2022,97,99,  N
70106,CATHCART (OLD POST OFFICE)               ,-36.8439,149.3897,NA,1/2/2022,112.4,91,  N
67103,CATTAI MITCHELL PARK ROAD                ,-33.5583,150.9161,1/10/1988,1/8/1996,6.3,79,  N
47063,CATTLE WELL                              ,-32.2,143.2,1/9/1907,1/1/1923,14.8,96,  N
70019,CAVAN                                    ,-35.0167,148.8667,NA,1/5/1970,89,100,  N
68141,CAWDOR                                   ,-34.0833,150.6667,NA,1/2/1925,29.1,100,  N
68122,CAWDOR (WOODBURN)                        ,-34.1014,150.6444,1/12/1962,1/12/2021,52.8,89,  N
58106,CAWONGLA                                 ,-28.6044,153.09,1/10/1965,1/8/1991,25.8,100,  N
67064,CECIL PARK ANDERSONS RES.FARM            ,-33.8667,150.8333,1/5/1964,1/8/1970,6.3,100,  N
61147,CEDAR CREEK                              ,-32.7667,151.2833,1/4/1959,1/5/1970,10.1,90,  N
56151,CEDAR RISE (ABINDALE)                    ,-30.3333,151.0333,1/10/1902,1/12/1923,21,99,  N
66160,CENTENNIAL PARK                          ,-33.8959,151.2341,1/6/1900,1/3/2022,120.4,99,  N
63112,CENTRAL BURRAGORANG 2                    ,-34.1,150.4,1/10/1956,1/8/1961,4.8,97,  N
47114,CENTRAL DARLING (TANDOU)                 ,-32.7107,142.1115,1/8/2017,1/3/2022,4.7,100,  Y
60091,CENTRAL LANSDOWNE (OAKDALE)              ,-31.75,152.4833,1/1/1969,1/5/1981,12.4,100,  N
61148,CENTRAL PAGES                            ,-31.7167,151.2333,1/12/1960,1/8/1970,9.7,99,  N
69149,CENTRAL TILBA (BRAESIDE)                 ,-36.2906,150.0701,1/5/2003,1/12/2018,15.7,100,  N
51073,CERES                                    ,-32.2,148.1,1/7/1923,1/12/1929,6.5,100,  N
61242,CESSNOCK (NULKABA)                       ,-32.8093,151.349,1/3/1966,1/8/2012,46.5,100,  N
61326,CESSNOCK (O'CONNOR)                      ,-32.7833,151.3333,1/6/1965,1/4/1979,13.5,97,  N
61260,CESSNOCK AIRPORT AWS                     ,-32.7914,151.3369,1/6/1968,1/3/2022,32.3,60,  Y
61009,CESSNOCK POST OFFICE                     ,-32.8272,151.3661,1/1/1903,1/10/1992,87.2,97,  N
70110,CHAIN-O-PONDS                            ,-34.6167,149.1333,1/9/1958,1/11/1968,9.2,89,  N
70073,CHAKOLA (RIVERSDALE)                     ,-36.0329,149.1323,1/1/1933,1/12/2021,87.4,98,  N
70150,CHAKOLA (ROSEBROOK)                      ,-36.15,149.1833,1/10/1962,1/3/1966,3.3,93,  N
70031,CHAKOLA (UMERALLA)                       ,-36.0667,149.1333,1/1/1911,1/9/1979,66.4,97,  N
62006,CHARBON STANDARD PORTLAND CEME           ,-32.9,149.9667,1/7/1929,1/5/1978,46.4,95,  N
61254,CHARLESTOWN                              ,-32.9667,151.7,1/3/1968,1/6/1972,4.3,100,  N
63127,CHARLEVILLE (FOUR MILE CREEK)            ,-33.45,148.9333,1/4/1962,1/11/1968,6.3,94,  N
69041,CHARLEYONG (NERRIGA ROAD)                ,-35.2514,149.9158,1/1/1951,1/2/2022,71.2,100,  N
71003,CHARLOTTE PASS (KOSCIUSKO CHALET)        ,-36.4335,148.3327,1/6/1930,1/2/2015,46.5,55,  N
48028,CHARLTON                                 ,-30.25,146.7,NA,1/11/1951,79.9,100,  N
63100,CHATHAM VALLEY                           ,-33.8333,149.9,1/1/1953,1/8/1955,2.7,100,  N
70355,CHATSBURY (CHAPMANS LANE)                ,-34.5677,149.8218,1/5/2009,1/11/2021,12.6,100,  N
70020,CHATSBURY (MARYLAND)                     ,-34.5558,149.8331,NA,1/3/2004,108.5,95,  N
66011,CHATSWOOD BOWLING CLUB                   ,-33.801,151.1803,1/7/1951,1/3/2022,31.8,45,  N
66010,CHATSWOOD COUNCIL DEPOT                  ,-33.8014,151.1917,NA,1/12/1993,59.2,61,  N
66012,CHATSWOOD WATER SUPPLY                   ,-33.8,151.2,NA,1/8/1970,76.7,100,  N
63146,CHEETHAM FLATS (JUNDAS)                  ,-33.5544,150.0526,1/9/1959,1/2/2022,62.5,100,  N
54098,CHERRY TREE HILL                         ,-29.5667,150.8833,NA,1/12/1921,25.4,93,  N
54057,CHERRY TREE HILL (KULKI)                 ,-29.52,150.963,1/8/1958,1/12/2021,62.2,98,  N
67062,CHERRYBROOK (CASUARINA DRIVE)            ,-33.7312,151.0455,1/9/2007,1/9/2015,8.1,100,  N
66121,CHESTER HILL                             ,-33.8833,151,1/5/1964,1/3/1976,11.9,100,  N
61151,CHICHESTER DAM                           ,-32.2426,151.683,1/1/1942,1/2/2022,79.8,99,  N
61302,CHICHESTER STATE FOREST                  ,-32.3,151.75,1/4/1938,1/11/1958,20.6,100,  N
70243,CHIFLEY                                  ,-35.35,149.0833,1/7/1971,1/2/1976,4.6,98,  N
63298,CHIFLEY DAM (CAMPBELLS RIVER (UPSTREAM C ,-33.6134,149.6987,1/5/2000,1/3/2022,21.3,97,  N
58011,CHILLINGHAM                              ,-28.3146,153.275,1/11/1950,1/10/2021,69.3,97,  N
58036,CHILLINGHAM (LIMPINWOOD)                 ,-28.31,153.2229,1/3/1928,1/2/2022,85.2,91,  N
62090,CLANDULLA (EDENVALE)                     ,-32.95,149.95,1/4/1973,1/6/1977,4.3,100,  N
49088,CLARE TANK                               ,-33.3833,144,NA,1/10/1918,18,65,  N
61010,CLARENCE TOWN (PRINCE ST)                ,-32.5865,151.7743,NA,1/2/2022,126.5,100,  N
61339,CLARENCETOWN (MILL DAM FALLS (WILLIAMS R ,-32.5584,151.8043,1/12/2000,1/3/2022,20.5,96,  N
52048,CLEVELAND                                ,-29.1333,148.9,NA,1/2/1920,19.1,81,  N
61102,CLIFFDALE                                ,-32,150.9,1/1/1909,1/4/1921,12.3,99,  N
75015,CLIFFORD DOWNS                           ,-34.75,145.65,1/10/1912,1/12/1954,42.3,100,  N
68106,CLIFTON (COALCLIFF)                      ,-34.2453,150.9697,1/3/1943,1/2/1998,54.3,99,  N
59008,CLOUDS CREEK STATE FOREST                ,-30.0903,152.6333,1/6/1937,1/3/1989,51.4,99,  N
56166,CLOVELLY                                 ,-29.9667,151.1167,1/1/1965,1/4/1968,2.9,88,  N
48029,CLOVER CREEK                             ,-30.45,145.3,NA,1/5/1965,76.7,100,  N
63143,CLOVER DOWNS                             ,-33.5833,149.9833,1/8/1959,1/3/1971,10.9,94,  N
58085,CLUNES                                   ,-28.7311,153.4056,NA,1/2/1944,45.3,83,  N
58127,CLUNES (FLATLEY DRIVE)                   ,-28.7342,153.4065,1/1/1962,1/2/2022,60.2,100,  N
58126,CLUNES (TOONUMBAR)                       ,-28.5833,152.7667,1/10/1965,1/1/1971,5.3,100,  N
61256,COAL POINT (ROBEY ROAD)                  ,-33.05,151.6167,1/5/1968,1/7/1977,9.3,100,  N
58028,COALDALE (BELLONA)                       ,-29.3842,152.7936,1/3/2001,1/3/2022,12.4,59,  N
49009,COAN DOWNS                               ,-32.7167,145.7833,NA,1/10/1961,81.4,100,  N
48182,COBAR (BRURA)                            ,-31.7,145.9167,NA,1/1/1973,26.3,32,  N
48236,COBAR (BUNDOON BELAH)                    ,-31.5425,145.3925,1/1/1990,1/2/1992,2,92,  N
48096,COBAR (CUBBA)                            ,-31.4414,145.3499,1/12/1959,1/6/2005,38.5,84,  N
48034,COBAR (DOUBLE GATES)                     ,-31.6888,145.483,NA,1/12/2021,129.7,99,  N
48050,COBAR (KAROO)                            ,-30.9823,145.4748,1/7/1999,1/1/2000,0.6,99,  N
48162,COBAR (KERGUNYAH)                        ,-31.1667,146.1333,NA,1/9/1932,41.1,100,  N
48053,COBAR (LERIDA)                           ,-31.6982,145.7045,NA,1/3/2009,123.8,98,  N
48199,COBAR (MARYANTHA)                        ,-31.45,145.8833,1/6/1970,1/6/1973,2.3,76,  N
48059,COBAR (MERYULA)                          ,-31.605,146.0583,NA,1/8/1993,95.7,85,  N
